submap,latitude,longitude,label_latitude,label_longitude,date,name
AK,68.136164,-159.907427,31.651230,-131.962971,,Noatak NPres
AK,67.776828,-153.346477,31.410475,-129.338591,,Gates of the Arctic NP&NPres
AK,67.507877,-159.226292,31.230278,-131.690517,,Kobuk Valley NP
AK,67.418385,-163.505229,31.170318,-133.402092,,Cape Krusenstern NM
AK,65.926059,-164.437937,30.170460,-133.775175,,Bering Land Bridge NPres
AK,64.971812,-143.290737,29.531114,-125.316295,,Yukon-Charley Rivers NPres
AK,63.375583,-150.798300,28.461641,-128.319320,,Denali NP
AK,61.282822,-142.893842,27.059491,-125.157537,,Wrangell-St Elias NP&NPres
AK,60.634254,-153.304175,26.624950,-129.321670,,Lake Clark NP&NPres
AK,59.929391,-150.162565,26.152692,-128.065026,,Kenai Fjords NP
AK,59.014565,-156.118260,25.539759,-130.447304,,Alagnak WR
AK,58.786102,-136.966883,25.386688,-122.786753,,Glacier Bay NP&NPres
AK,58.605381,-154.959963,25.265605,-129.983985,,Katmai NP NPres
AK,57.048453,-135.315939,24.222464,-122.126376,,Sitka NHP
AK,56.871310,-157.814579,24.103778,-131.125832,,Aniakchak NM
WA,48.785985,-121.065508,48.785985,-121.065508,20210711,Ross Lake NRA
WA,48.772889,-121.298236,48.772889,-121.298236,20210711,North Cascades NP
MT,48.767670,-113.790356,48.767670,-113.790356,,Glacier NP
WA,48.591907,-120.404816,48.591907,-120.404816,20210711,Pacific Crest NST
WA,48.587001,-123.150828,48.587001,-123.150828,,San Juan Island NHP
MI,48.497282,-92.8493650,48.497282,-92.8493650,,Voyageurs NP
WA,48.357325,-120.685413,48.357325,-120.685413,20210711,Lake Chelan NRA
WA,48.252041,-122.707406,48.252041,-122.707406,,Ebey's Landing NHR
WA,48.139903,-118.246768,48.139903,-118.246768,20210712,Lake Roosevelt NRA
MI,48.019982,-88.9253230,48.019982,-88.9253230,,Isle Royale NP
MT,47.999742,-104.040793,47.999742,-104.040793,,Fort Union Trading Post NHS
MN,47.962664,-89.6848830,47.962664,-89.6848830,,Grand Portage NM
WA,47.905358,-123.627509,47.905358,-123.627509,20210722,Olympic NP
WA,47.600093,-122.332026,47.600093,-122.332026,20210725,Klondike Gold Rush NHP
ND,47.331976,-101.385821,47.331976,-101.385821,,Knife River Indian Villages NHS
MI,47.242563,-88.4482090,47.242563,-88.4482090,,Keweenaw NHP
ND,47.003185,-103.542186,47.003185,-103.542186,,Theodore Roosevelt NP
WA,46.939864,-121.694117,46.939864,-121.694117,20210718,Mount Rainier NP
WI,46.934026,-90.6336230,46.934026,-90.6336230,,Apostle Islands NL
MI,46.568906,-86.3186320,46.568906,-86.3186320,,Pictured Rocks NL
ID,46.448003,-116.822449,46.448003,-116.822449,20210713,Nez Perce NHP
MT,46.406470,-112.736676,46.406470,-112.736676,,Grant-Kohrs Ranch NHS
OR,46.135126,-123.880365,46.135126,-123.880365,20210717,Lewis and Clark NHP
WA,46.041901,-118.464098,46.041901,-118.464098,20210714,Whitman Mission NHS
WI,46.028400,-92.0126360,46.028400,-92.0126360,,Saint Croix NSR
ME,45.957323,-68.7122870,45.957323,-68.7122870,20160923,Katahdin Woods and Waters NM
MT,45.642075,-113.643343,45.642075,-113.643343,,Big Hole NB
WA,45.627403,-122.656356,45.627403,-122.656356,20210717,Fort Vancouver NHS
MT,45.571043,-107.427299,45.571043,-107.427299,20181119,Little Bighorn Battlefield NM
MI,45.145859,-86.0133900,45.145859,-86.0133900,,Sleeping Bear Dunes NL
ME,45.128938,-67.1336690,45.128938,-67.1336690,,Saint Croix Island IHS
WY,45.054004,-108.246812,45.054004,-108.246812,,Bighorn Canyon NRA
MN,44.932490,-93.1127380,44.932490,-93.1127380,,Mississippi NRRA
OR,44.815226,-117.728514,44.815226,-117.728514,20210716,Oregon NHT
WY,44.689394,-110.580043,44.689394,-110.580043,20150522,Yellowstone NP
OR,44.635079,-120.239074,44.635079,-120.239074,20210715,John Day Fossil Beds NM
SD,44.591629,-104.714706,44.591629,-104.714706,20181120,Devils Tower NM
ME,44.370877,-68.2638240,44.370877,-68.2638240,20160924,Acadia NP
WI,44.278895,-89.2380020,44.278895,-89.2380020,,Ice Age NST
WY,44.083416,-110.681928,44.083416,-110.681928,20150524,John D RockeFeller Jr Memorial PKWY
MN,44.013643,-96.3251900,44.013643,-96.3251900,20181009,Pipestone NM
SD,43.963398,-102.354604,43.963398,-102.354604,20181120,Badlands NP
WY,43.886597,-110.733634,43.886597,-110.733634,20150524,Grand Teton NP
SD,43.880833,-103.453761,43.880833,-103.453761,20181122,Mount Rushmore NMem
SD,43.845108,-101.900855,43.845108,-101.900855,20181121,Minuteman Missle NHS
SD,43.731433,-103.829874,43.731433,-103.829874,20181123,Jewel Cave NM
VT,43.631884,-72.5178630,43.631884,-72.5178630,20160922,Marsh-Billings-RockeFeller NHP
SD,43.594238,-103.441918,43.594238,-103.441918,20181123,Wind Cave NP
NH,43.500726,-72.3687780,43.500726,-72.3687780,20160922,Saint-Gaudens NHS
NY,43.419385,-73.7107170,43.419385,-73.7107170,20160921,Champlain Valley NHA
NY,43.288234,-75.4153150,44.111304,-74.5600020,20160920,North Country NST
NY,43.211265,-75.4554880,43.507570,-77.7288210,20160920,Fort Stanwix NM
ID,43.172187,-113.482081,43.172187,-113.482081,,Craters of the Moon NM&NPres
OH,43.089055,-91.1855840,43.089055,-91.1855840,20181008,Effigy Mounds NM
NY,43.012128,-73.6488090,43.012128,-73.6488090,20160921,Saratoga NHP
ID,42.973343,-122.126332,42.973343,-122.126332,20190702,Crater Lake NP
NY,42.923741,-76.5760360,42.923741,-76.5760360,20160919,Harriet Tubman NHP
NY,42.911265,-76.8000250,42.911265,-76.8000250,20160919,Womens Rights NHP
NY,42.901664,-78.8725290,42.901664,-78.8725290,,Theodore Roosevelt Inaugural NHS
SD,42.869738,-97.3849420,42.869738,-97.3849420,20181009,Missouri NRR
NE,42.868907,-100.553153,42.868907,-100.553153,20181009,Niobrara NSR
ID,42.832150,-114.891889,42.832150,-114.891889,,Hagerman Fossil Beds NM
NY,42.784602,-73.6806410,42.784602,-73.6806410,20160921,Erie Canalway NHC
ID,42.679254,-114.244105,42.679254,-114.244105,,Minidoka NHS
MA,42.644791,-71.3133260,42.644791,-71.3133260,20160927,Lowell NHP
MA,42.524513,-70.8942460,43.707212,-70.2117300,20160926,Essex NHA
MA,42.521990,-70.8869770,43.229399,-69.9536080,20160929,Salem Maritime NHS
MA,42.468433,-71.0083440,42.468433,-71.0083440,20160926,Saugus Iron Works NHS
MA,42.454790,-71.3012310,42.454790,-71.3012310,20160927,Minute Man NHP
NE,42.425466,-103.734226,42.425466,-103.734226,20181010,Agate Fossil Beds NM
MA,42.377495,-71.1263210,43.299334,-73.6247360,20150611,Longfellow House NHS
MA,42.373406,-71.0565120,44.236500,-70.3315400,20150610,Boston NHP
NY,42.370143,-73.7041610,42.370143,-73.7041610,20160920,Martin Van Buren NHS
NY,42.360948,-71.0650720,42.972961,-66.3740650,20150608,Boston African American NHS
MA,42.347427,-71.1233040,42.904175,-72.6856650,20150610,John F Kennedy NHS
WY,42.338178,-110.674031,42.338178,-110.674031,20150525,California NHT
MA,42.325812,-71.1322360,42.493907,-73.2676490,20150610,Frederick Law Olmsted NHS
MA,42.312831,-70.9493000,42.589195,-65.7302580,20150613,Boston Harbor Islands NRA
MA,42.256545,-71.0118230,41.977634,-67.7368380,20150612,Adams NHP
WY,42.204269,-104.556092,42.204269,-104.556092,20181011,Fort Laramie NHS
MA,42.107682,-72.5814680,42.107682,-72.5814680,20160929,Springfield Armory NHS
OR,42.098837,-123.406829,42.098837,-123.406829,20190701,Oregon Caves NM
MA,42.095249,-71.2695680,42.095249,-71.2695680,20151010,Washington-Rochambeau Rev. Rt. NHT
ID,42.073067,-113.703820,42.073067,-113.703820,,City of Rocks NPres
WY,42.062206,-104.184106,42.062206,-104.184106,20181011,Pony Express NHT
MI,41.916020,-83.3798820,41.916020,-83.3798820,,River Raisin NBP
CA,41.887620,-121.377165,41.887620,-121.377165,20190703,Tule Lake NM
RI,41.878866,-71.3831730,42.157777,-72.7899740,20160928,Blackstone River Valley NHP
WY,41.857039,-110.762421,41.857039,-110.762421,20150525,Fossil Butte NM
NE,41.834633,-103.707012,41.834633,-103.707012,20181011,Scotts Bluff NM
RI,41.831667,-71.4109370,41.634130,-66.2340410,20160928,Roger Williams NMem
NY,41.797590,-73.9419960,42.825746,-78.2063970,20160919,Vanderbilt Mansion NHS
CA,41.775503,-121.506772,41.775503,-121.506772,20190703,Lava Beds NM
NY,41.768360,-73.9353020,42.339081,-78.6712940,20160919,Home of Franklin D. Roosevelt NHS
NY,41.762932,-73.8995460,42.015281,-78.3919340,20160919,Eleanor Roosevelt NHS
MA,41.727277,-69.9302480,41.727277,-69.9302480,20160926,Cape Cod NS
IL,41.694052,-87.6076500,41.694052,-87.6076500,,Pullman NHP
IA,41.670131,-91.3463330,41.670131,-91.3463330,20181008,Herbert Hoover NHS
OH,41.665393,-81.3508850,41.665393,-81.3508850,20170414,James A Garfield NHS
IN,41.658284,-87.0517320,41.658284,-87.0517320,,Indiana Dunes NP
MI,41.654503,-82.8113260,41.654503,-82.8113260,,Perry's Victory and International Peace Mem
MA,41.635952,-70.9239310,41.635952,-70.9239310,20160928,New Bedford Whaling NHP
PA,41.626995,-75.0500430,41.626995,-75.0500430,20160918,Upper Delaware SRR
UT,41.617352,-112.550721,41.617352,-112.550721,,Golden Spike NHP
CA,41.533803,-124.043823,41.533803,-124.043823,20190630,Redwood NP
OH,41.474714,-81.4916520,41.474714,-81.4916520,20170414,David Berger NM
PA,41.408210,-75.6720080,41.408210,-75.6720080,20160918,Steamtown NHS
OH,41.322030,-81.5728490,41.322030,-81.5728490,20160612,Cuyahoga Valley NP
MA,41.272374,-72.6700250,41.272374,-72.6700250,20160929,New England NST
NE,41.265478,-95.9245760,41.265478,-95.9245760,20181009,Lewis and Clark NHT
CT,41.257774,-73.4559970,41.257774,-73.4559970,,Weir Farm NHP
PA,41.130221,-74.9427020,41.435439,-78.3761200,20160918,Middle Delaware NSR
NJ,41.104794,-74.9443900,41.121255,-78.5457090,20160918,Delaware Water Gap NRA
NY,41.088507,-73.9682480,41.088507,-73.9682480,20160920,Hudson River Valley NHA
NJ,40.915700,-74.1796520,40.915700,-74.1796520,20160917,Paterson Great Falls NHP
NY,40.894387,-73.8262710,40.894387,-73.8262710,20180720,Saint Paul's Church NHS
NY,40.885832,-73.5009550,40.885832,-73.5009550,,Sagamore Hill NHS
NY,40.822101,-73.9472560,41.538165,-72.3877200,20180720,Hamilton Grange NMem
NY,40.813863,-73.9632970,41.294559,-72.4040980,20180721,General Grant NMem
OH,40.798255,-81.3751840,40.798255,-81.3751840,20170414,First Ladies NHS
NJ,40.797111,-74.4659630,40.797111,-74.4659630,20160917,Morristown NHP
NJ,40.784456,-74.2343740,40.784456,-74.2343740,20160917,Thomas Edison NHP
NY,40.739021,-73.9890660,40.977516,-72.3909810,20180722,Theodore Roosevelt Birthplace NHS
NY,40.734871,-74.0021830,40.951075,-72.3285560,20180722,Stonewall NM
NY,40.715133,-74.0045030,40.682210,-72.4739420,20180722,African Burial Ground NM
NY,40.707581,-74.0102040,40.444198,-69.3509980,20180722,Federal Hall NMem
NY,40.704154,-74.0166740,40.048415,-68.5677860,20180722,Castle Clinton NM
NY,40.690406,-74.0174530,39.785028,-67.3325050,20180722,Governors Island NM
NY,40.689717,-74.0446230,39.367769,-68.7101000,20180722,Statue of Liberty NM
NY,40.644410,-73.1640010,40.644410,-73.1640010,,Fire Island NS
WA,40.613784,-122.600993,40.613784,-122.600993,20190705,Whiskeytown-Shasta-Trinity NRA
CA,40.565135,-121.420760,40.565135,-121.420760,20190704,Lassen Volcanic NP
CO,40.513265,-108.948790,40.513265,-108.948790,,Dinosaur NM
PA,40.460045,-78.5496080,40.460045,-78.5496080,20160619,Allegheny Portage Railroad NHS
UT,40.444547,-111.705329,40.444547,-111.705329,20150526,Timpanagos Cave NM
NY,40.440206,-73.9884900,40.440206,-73.9884900,20180722,Gateway NRA
CO,40.408694,-105.690869,40.408694,-105.690869,20181011,Rocky Mountain NP
PA,40.350457,-78.7716060,40.350457,-78.7716060,20160619,Johnstown Flood NMem
NE,40.286973,-96.8327360,40.286973,-96.8327360,,Homestead NHP
NJ,40.221708,-74.7693210,40.221708,-74.7693210,20160917,Crossroads of the American Revolution NHA
PA,40.100388,-75.4460660,40.100388,-75.4460660,20160326,Valley Forge NHP
PA,40.059493,-78.8948600,40.059493,-78.8948600,20160619,Flight 93 NMem
PA,39.962056,-75.1499210,40.608872,-77.0180040,20160716,Edgar Allen Poe NHS
PA,39.959251,-75.1724770,40.464634,-81.5412330,20160716,Benjamin Franklin NMem
PA,39.950416,-75.1498200,39.649289,-76.2528250,20160716,Independence NHP
PA,39.950069,-75.1497750,39.613561,-76.3203970,20160326,Hopewell Fernace NHS
PA,39.943918,-75.1474580,39.850185,-72.4240300,20160716,Thaddeus Kosciuszko NMem
PA,39.816216,-79.5894550,39.816216,-79.5894550,20160618,Fort Necessity NB
PA,39.806178,-77.2421590,39.966530,-78.5035030,20160529,Gettysburg NMP
IL,39.804694,-89.6417860,40.075405,-88.4932430,,Springfield 1908 Race Riot NM
IL,39.797366,-89.6448990,39.612626,-87.7320100,,Lincoln Home NHS
PA,39.795577,-77.2635230,39.123171,-81.5464770,20160529,Eisenhower NHS
PA,39.776482,-79.9315930,39.776482,-79.9315930,20160618,Friendship Hill NHS
OH,39.755980,-84.2117560,39.755980,-84.2117560,20181005,Dayton Aviation Heritage NHP
OH,39.708255,-83.8906380,39.708255,-83.8906380,20181006,Charles Young Buffalo Soldiers NM
IL,39.698108,-90.9617190,39.698108,-90.9617190,,New Philadelphia NHS
DE,39.660402,-75.5635810,39.660402,-75.5635810,20160717,First State NHP
MD,39.640590,-77.4413360,39.640590,-77.4413360,20160528,Catoctin Mountain Park
MD,39.500930,-77.8449180,39.500930,-77.8449180,20160530,Chesapeake and Ohio Canal NHP
MD,39.467669,-77.7363860,39.467669,-77.7363860,20160530,Antietam NB
MD,39.416976,-76.5876730,39.416976,-76.5876730,20160327,Hampton NHS
KS,39.393444,-99.6146840,39.393444,-99.6146840,,Nicodemus NHS
MD,39.378127,-77.3970660,39.378127,-77.3970660,20160528,Monocacy NB
OH,39.376188,-83.0064840,39.376188,-83.0064840,20181005,Hopewell Culture NHP
WV,39.318178,-77.7581160,39.318178,-77.7581160,20160530,Harpers Ferry NHP
NJ,39.307596,-74.6503260,39.307596,-74.6503260,20160717,Great Egg Harbor SRR
MD,39.266286,-76.5785310,38.937058,-74.8003800,20151010,Star Spangled Banner NST
MD,39.264579,-76.5805980,38.441509,-74.6448890,20160327,Fort McHenry NM
OH,39.119782,-84.5083020,39.119782,-84.5083020,20181006,William Howard Taft NHS
MO,39.093936,-94.4235410,39.093936,-94.4235410,,Harry S Truman NHS
VA,39.052222,-77.3341980,39.052222,-77.3341980,20151010,Potomac Heritage NST
CO,39.050930,-108.692195,39.050930,-108.692195,,Colorado NM
KS,39.039422,-95.6763290,39.039422,-95.6763290,,Brown v Board of Education NHP
VA,39.024403,-78.3052900,38.824354,-81.4950730,20160530,Shenandoah Battlefields NHP
VA,39.011516,-78.3040920,38.204907,-81.2526720,20160530,Cedar Creek and Belle Grove NHP
DC,38.984067,-76.8972880,31.522010,-63.9186400,20151228,Greenbelt Park
DC,38.967874,-77.0452070,31.036220,-68.3562100,20160326,Rock Creek Park
MD,38.967632,-77.1409490,38.967632,-77.1409490,20151228,Clara Barton NHS
NV,38.946684,-114.256572,38.946684,-114.256572,,Great Basin NP
VA,38.939170,-77.2660710,38.939170,-77.2660710,20151229,Wolf Trap Performing Arts Park
VA,38.918196,-78.0496200,38.918196,-78.0496200,20160530,Appalachian NST
CO,38.914317,-105.285489,38.914317,-105.285489,20181015,Florissant Fossil Beds NM
DC,38.911254,-77.0242380,29.337620,-67.7271400,20151226,Carter G Woodson NHS
DC,38.908568,-77.0306190,29.257040,-67.9185700,20151226,Mary McLeod Bethune Council House NHS
UT,38.901236,-109.599515,38.901236,-109.599515,20150526,Arches NP
DC,38.899211,-77.0349810,30.737701,-67.3066580,20151226,Pennsylvania Avenue NHS
DC,38.897955,-77.0366550,29.844520,-67.1548250,20151226,The White House - President's Park
DC,38.897198,-77.0265730,29.311014,-64.6460360,20151226,Peterson House NHS
DC,38.896874,-77.0329210,30.222640,-67.0867790,20151226,World War 1 Mem
DC,38.896754,-77.0623170,28.902620,-68.8695100,20151228,Theodore Roosevelt Island Park
DC,38.895060,-77.0273030,28.937360,-65.2690280,20151226,Old Post Offce Tower Mem
DC,38.893950,-77.0039020,28.818500,-67.1170600,20160716,Belmont-Paul Women's Equality NM
DC,38.892081,-77.0445170,29.268984,-70.4806300,20151226,Constitution Gardens Park
DC,38.891956,-77.0477460,28.921293,-72.3027180,20151226,Vietnam Veterans Mem
DC,38.890402,-77.0351250,28.259189,-62.5971780,20151226,National Mall Park
DC,38.890230,-77.0353350,27.806682,-65.4653020,20151226,Washington Monument Park
DC,38.889641,-77.0501020,28.482586,-70.6538590,20151226,Lincoln Mem
DC,38.889498,-77.0405500,28.684940,-68.2165000,20151226,World War II Mem
DC,38.888597,-77.0477100,28.030774,-69.4033900,20151226,Korean War Veterans Mem
DC,38.888101,-77.0188740,28.643030,-67.5662200,20151226,Dwight D Eisenhower Mem
DC,38.887151,-77.0445460,28.614530,-68.3363800,20151226,Martin Luther King Jr. Mem
DC,38.883993,-77.0428410,28.519790,-68.2852300,20151226,Franklin Delano Roosevelt Memorial
VA,38.882517,-77.0727880,38.882517,-77.0727880,20151228,Arlington House Mem
DC,38.881722,-77.0365910,28.451660,-68.0977300,20151226,Jefferson Mem
DC,38.880641,-77.0513670,28.419230,-68.5410100,20151228,LBJ Memorial Grove on the Potomac Park
DC,38.868279,-76.9953500,27.455759,-64.8572660,20151229,Anacostia Park
DC,38.866320,-76.9939170,27.051300,-64.7242430,20151226,National Capital Parks-East Park
DC,38.863635,-76.9852410,27.909050,-66.5572300,20151229,Frederick Douglass NHS
DC,38.844223,-77.0492380,27.326690,-68.4771400,20151228,George Washington Mem. PKWY
VA,38.817315,-77.5353070,38.817315,-77.5353070,20151010,Manassas NBP
DC,38.768797,-77.0255370,24.854214,-68.6943860,20151226,Ford's Theatre NHS
DC,38.767843,-77.0249680,25.244986,-66.0779920,20151010,Fort Foote Park
MD,38.712011,-77.0287480,38.020632,-75.5432040,20151010,Fort Washington Park
MD,38.687899,-77.0499370,37.617907,-76.8473630,20151010,Piscataway Park
IN,38.678979,-87.5367160,38.678979,-87.5367160,20160811,George Rogers Clark NHP
UT,38.625504,-90.1860890,38.625504,-90.1860890,,Gateway Arch NP
CO,38.621465,-107.743005,38.621465,-107.743005,,Black Canyon of the Gunnison NP
VA,38.585816,-77.3842780,38.585816,-77.3842780,20151009,Prince William Forest Park
MI,38.551456,-90.3517520,38.551456,-90.3517520,,Ulysses S Grant NHS
CO,38.544759,-102.503886,38.544759,-102.503886,,Sand Creek Massacre NHS
MD,38.530532,-77.0362740,38.530532,-77.0362740,20151011,Thomas Stone NHS
VA,38.497963,-78.4506270,38.497963,-78.4506270,20160530,Shenandoah NP
CO,38.466279,-107.166732,38.466279,-107.166732,,Curecanti NRA
VA,38.450515,-76.1377070,38.450515,-76.1377070,20160325,Harriet Tubman Underground Railroad NHP
KS,38.432688,-96.5570760,38.432688,-96.5570760,,Tallgrass Prairie NPres
UT,38.397109,-109.972007,38.397109,-109.972007,20150527,Canyonlands NP
VA,38.305326,-76.6360170,38.305326,-76.6360170,20151011,Underground Railroad Network Park
VA,38.293988,-77.4674290,38.293988,-77.4674290,20151009,Fredericksburg and Spotsylvania NMP
WV,38.224160,-80.9914060,38.224160,-80.9914060,20150906,Gauley River NRA
VA,38.183981,-76.9202370,38.183981,-76.9202370,20151010,George Washington Birthplace NM
KS,38.183083,-99.2211460,38.183083,-99.2211460,,Fort Larned NHS
UT,38.133764,-111.157765,38.133764,-111.157765,,Capitol Reef NP
IN,38.114270,-86.9955390,38.114270,-86.9955390,20160811,Lincoln Boyhood NMem
VA,38.077546,-75.2357610,38.077546,-75.2357610,20160325,Assateague Island NS
CA,38.058787,-122.030213,38.058787,-122.030213,20190706,Port Chicago Naval Magazine NM
CO,38.056585,-102.329279,38.056585,-102.329279,,Amache NHS
CA,38.054493,-122.887881,38.054493,-122.887881,20190629,Point Reyes NS
CO,38.040934,-103.429623,38.040934,-103.429623,,Bent's Old Fort NHS
CA,37.992694,-122.131096,37.992694,-122.131096,20190706,John Muir NHS
MI,37.974453,-90.0408800,37.974453,-90.0408800,,Ste Genevieve NHP
WV,37.929867,-81.0506180,37.929867,-81.0506180,20150906,New River Gorge NP&Pres
CA,37.910142,-122.357540,37.910142,-122.357540,20190706,Rosie the Riveter NHP
CA,37.905861,-119.554102,37.905861,-119.554102,,Yosemite NP
CA,37.897792,-122.581469,38.556248,-122.423911,20150518,Muir Woods NM
CO,37.862279,-105.646524,37.862279,-105.646524,20181016,Great Sand Dunes NP
CA,37.847458,-122.530616,38.079028,-120.189759,20150517,Golden Gate NRA
KS,37.844166,-94.7043940,37.844166,-94.7043940,20171126,Fort Scott NHS
CA,37.827119,-122.027249,37.827119,-122.027249,20190706,Eugene O'Neall NHS
CA,37.811229,-122.476927,36.984601,-121.366670,20150517,Fort Point NHS
CA,37.808026,-122.424557,37.637806,-121.166100,20150517,San Francisco Maritime NHP
KY,37.797522,-84.6007960,37.797522,-84.6007960,20160814,Camp Nelson NM
UT,37.782680,-112.224307,37.782680,-112.224307,,Bryce Canyon NP
UT,37.636893,-112.845229,37.636893,-112.845229,,Cedar Breaks NM
CA,37.616228,-119.087654,37.616228,-119.087654,,Devils Postpile NM
UT,37.603266,-110.005771,37.603266,-110.005771,,Natural Bridges NM
DC,37.548311,-77.4373210,-11.550670,-80.119630,20151229,Maggie L Walker NHS
KY,37.531167,-85.7374930,37.531167,-85.7374930,20160811,Abraham Lincoln Birthplace NHP
VA,37.527342,-77.4121630,37.527342,-77.4121630,20151011,Richmond NBP
CO,37.471244,-105.865589,37.471244,-105.865589,20181016,Sangre de Cristo NHA
WV,37.451563,-81.1733870,37.451563,-81.1733870,20150906,Bluestone NSR
UT,37.384065,-109.072614,37.384065,-109.072614,,Hovenweep NM
VA,37.380652,-78.7983350,37.380652,-78.7983350,20150808,Appomattox Court House NHP
UT,37.316436,-113.030707,37.316436,-113.030707,,Zion NP
CO,37.251746,-108.685809,37.251746,-108.685809,,Yucca House NM
VA,37.230999,-76.5027680,37.230999,-76.5027680,20160325,Colonial NHP
VA,37.229232,-77.3662920,37.229232,-77.3662920,20151011,Petersburg NB
KY,37.215877,-86.1161890,37.215877,-86.1161890,20160812,Mammoth Cave NP
VA,37.212568,-76.7782490,37.212568,-76.7782490,20151010,Captain John Smith Chesapeake NHT
CO,37.188142,-108.489127,37.188142,-108.489127,,Mesa Verde NP
VA,37.120838,-79.7318710,37.120838,-79.7318710,20150808,Booker T Washington NM
MO,37.116461,-93.4198970,37.116461,-93.4198970,20171126,Wilson's Creek NB
UT,37.077663,-110.964311,37.077663,-110.964311,,Rainbow Bridge NM
KY,37.069118,-84.7359070,37.069118,-84.7359070,20160814,Mill Springs Battlefield NM
CA,37.020786,-117.170569,37.020786,-117.170569,,Death Valley NP
VA,37.004607,-76.3072650,37.004607,-76.3072650,20160325,Fort Monroe NM
AR,37.000862,-91.0161330,37.000862,-91.0161330,20171128,Ozark NSR
MO,36.986245,-94.3547010,36.986245,-94.3547010,20171126,George Washington Carver NM
UT,36.919971,-111.475696,36.919971,-111.475696,,Glen Canyon NRA
CA,36.905697,-118.555133,36.905697,-118.555133,,Kings Canyon NP
AZ,36.863369,-112.737611,36.863369,-112.737611,,Pipe Spring NM
NM,36.836279,-107.999536,36.836279,-107.999536,,Aztec Ruins NM
NM,36.802542,-103.975494,36.802542,-103.975494,20181016,Capulin Volcano NM
CA,36.727508,-118.152831,36.727508,-118.152831,,Manzanar NHS
AZ,36.682094,-110.532860,36.682094,-110.532860,,Navajo NM
KY,36.626615,-83.6085300,36.626615,-83.6085300,20160814,Cumberland Gap NHP
VA,36.569705,-80.9078660,36.569705,-80.9078660,20150802,Blue Ridge PKWY
TN,36.535948,-84.6654920,36.535948,-84.6654920,20160814,Big South Fork NRRA
CA,36.520014,-118.574575,36.520014,-118.574575,,Sequoia NP
CA,36.518592,-121.189300,36.518592,-121.189300,20150515,Pinnacles NP
KY,36.482244,-87.8634710,36.482244,-87.8634710,20160810,Fort Donelson NB
AR,36.443859,-94.0265180,36.443859,-94.0265180,20171128,Pea Ridge NMP
AZ,36.391119,-112.373437,36.391119,-112.373437,,Grand Canyon NP
NV,36.336340,-115.278628,36.336340,-115.278628,,Tule Springs Fossil Beds NM
TN,36.163235,-82.8294890,36.163235,-82.8294890,20160806,Andrew Johnson NHS
NV,36.155342,-114.455869,36.155342,-114.455869,,Lake Mead NRA
NC,36.133611,-79.8416270,36.133611,-79.8416270,20150606,Guilford Courthouse NMP
TN,36.122404,-84.7901970,36.122404,-84.7901970,20160809,Obed WSR
AZ,36.120142,-109.319551,36.120142,-109.319551,,Canyon De Chelly NM
NM,36.053640,-107.955874,36.053640,-107.955874,,Chaco Culture NHP
TN,36.023760,-84.2713600,36.023760,-84.2713600,20160809,Manhattan Project NHP
NC,36.019198,-83.4929730,36.019198,-83.4929730,20161008,Great Smoky Mountains NP
NC,36.017056,-75.6681360,36.198132,-73.9575100,20151024,Wright Brothers NM
AR,35.983223,-92.7548350,35.983223,-92.7548350,20171128,Buffalo NR
NC,35.936013,-75.7087340,35.754937,-74.1781730,20151024,Fort Raleigh NHS
NM,35.905864,-105.011581,35.905864,-105.011581,20181016,Fort Union NM
WA,35.881833,-106.302738,35.881833,-106.302738,20181017,Manhattan Project NHP
TN,35.876436,-86.4306890,35.876436,-86.4306890,20160810,Stones River NB
TN,35.874368,-87.0321090,35.874368,-87.0321090,20171124,Natchez Trace NST
NM,35.832763,-106.487028,35.832763,-106.487028,20181017,Valles Caldera NPres
NC,35.797128,-75.5464930,35.797128,-75.5464930,20151025,Cape Hatteras NS
NM,35.779330,-106.270960,35.779330,-106.270960,20181017,Bandelier NM
AZ,35.709648,-109.558452,35.709648,-109.558452,,Hubbell Trading Post NHS
NM,35.665459,-105.921095,35.665459,-105.921095,20181017,Santa Fe NHT
TX,35.644696,-101.586677,35.644696,-101.586677,20171221,Lake Meredith NRA
OK,35.617413,-99.6865320,35.617413,-99.6865320,20171222,Washita Battlefield NM
TX,35.582622,-101.673387,35.582622,-101.673387,20171222,Alibates Flint Quarries NM
AZ,35.560428,-111.393487,35.560428,-111.393487,,Wupatki NM
NM,35.548298,-105.684448,35.548298,-105.684448,20181018,Pecos NHP
OK,35.474196,-97.5173000,35.474196,-97.5173000,20171222,Oklahoma City NMem
AR,35.388314,-94.4299200,35.388314,-94.4299200,20171127,Fort Smith NHS
AZ,35.371617,-111.510834,35.371617,-111.510834,,Sunset Crater Volcano NM
CA,35.302248,-115.126762,35.302248,-115.126762,20160511,Castle Mountains NM
NC,35.273994,-82.4451370,35.273994,-82.4451370,20150823,Carl Sandburg Home NHS
CA,35.224152,-118.558299,35.224152,-118.558299,,Cesar E Chavez NM
AZ,35.169406,-111.504442,35.169406,-111.504442,,Walnut Canyon NM
SC,35.142357,-81.3447320,35.073237,-79.2302480,20150718,Overmountain Victory NHT
TN,35.139582,-88.3423090,35.139582,-88.3423090,20171125,Shiloh NMP
SC,35.139083,-81.3910390,35.438662,-81.0521250,20150718,Kings Mountain NMP
SC,35.137886,-81.8177390,35.137886,-81.8177390,20150718,Cowpens NB
NM,35.124621,-106.752593,35.124621,-106.752593,,Petroglyph NM
CA,35.123652,-115.520452,35.123652,-115.520452,20160511,Mojave NPres
NM,35.118987,-107.828723,35.118987,-107.828723,,El Malpais NM
AZ,35.069265,-109.782272,35.069265,-109.782272,,Petrified Forest NP
TN,35.051624,-85.3093560,35.051624,-85.3093560,20151003,Trail of Tears NHT
NM,35.040218,-108.343962,35.040218,-108.343962,,El Morro NM
AL,34.979203,-85.8098840,34.979203,-85.8098840,20151003,Russell Cave NM
GA,34.934043,-85.2801340,34.934043,-85.2801340,20151003,Chickamauga and Chattanooga NMP
AZ,34.769234,-112.026824,34.769234,-112.026824,,Tuzigoot NM
AR,34.738206,-92.2974880,34.738206,-92.2974880,20171129,Little Rock Central High School NHS
NC,34.643039,-76.5265970,34.643039,-76.5265970,20150601,Cape Lookout NS
AZ,34.611862,-111.834874,34.611862,-111.834874,,Montezuma Castle NM
NM,34.595732,-106.297935,34.595732,-106.297935,,Salinas Pueblo Missions NM
AR,34.532424,-93.0723960,34.532424,-93.0723960,20171129,Hot Springs NP
MS,34.506680,-88.7289310,34.506680,-88.7289310,20171124,Brices Gross Roads NBS
OK,34.461846,-97.0070280,34.461846,-97.0070280,20171223,Chickasaw NRA
NC,34.458687,-78.1104400,34.458687,-78.1104400,20150531,Moores Creek NB
AL,34.417061,-85.6016460,34.417061,-85.6016460,20151003,Little River Canyon NPres
CA,34.258768,-119.797719,34.258768,-119.797719,20160508,Channel Islands NP
MS,34.255973,-88.7370210,34.255973,-88.7370210,20171124,Tupelo NB
CA,34.205254,-118.735617,34.205254,-118.735617,20160509,Juan Bautista de Anza NHT
SC,34.147243,-82.0230120,34.147243,-82.0230120,20150823,Ninety Six NHS
CA,34.104670,-118.602639,34.104670,-118.602639,20160509,Santa Monica Mountains NRA
GA,34.018900,-78.5153810,34.018900,-78.5153810,20150531,Gullah Geechee NHA
AR,34.015566,-91.3444590,34.015566,-91.3444590,20171130,Arkansas Post NMem
GA,33.988092,-84.3241260,33.988092,-84.3241260,20151004,Chattahoochee River NRA
MS,33.971347,-90.3697430,33.971347,-90.3697430,20171130,Emmett Till and Mamie Till-Mobley NM
GA,33.951792,-84.5965090,33.951792,-84.5965090,20151004,Kennesaw Mountain NBP
CA,33.930481,-115.916070,33.930481,-115.916070,20160510,Joshua Tree NP
SC,33.800847,-80.7482920,33.800847,-80.7482920,20160912,Congaree NP
TN,33.767358,-89.0188030,33.767358,-89.0188030,20171124,Natchez Trace PKWY
GA,33.757146,-84.3731960,33.757146,-84.3731960,20171124,Martin Luther King Jr. NHP
AR,33.668742,-93.5963170,33.668742,-93.5963170,20171129,President Bill Clinton Birthplace Home NHS
AL,33.658423,-85.8311290,33.658423,-85.8311290,20171124,Freedom Riders NM
AZ,33.648834,-111.113690,33.648834,-111.113690,,Tonto NM
NM,33.227950,-108.270750,33.227950,-108.270750,,Gila Cliff Dwellings NM
AZ,33.189373,-111.922490,33.189373,-111.922490,,Hohokam Pima NM
AZ,32.999092,-111.532418,32.999092,-111.532418,,Casa Grande Ruins NM
AL,32.976706,-85.7337740,32.976706,-85.7337740,20160130,Horseshoe Bend NMP
SC,32.846451,-79.8247280,33.142756,-79.0144310,20160501,Charles Pinckney NHS
NV,32.833138,-106.338686,32.833138,-106.338686,,White Sands NP
GA,32.818838,-83.5907660,32.818838,-83.5907660,20160131,Ocmulgee NHP
SC,32.759811,-79.8578750,32.595197,-76.9768200,20160501,Fort Sumter and Fort Moultrie NHP
CA,32.672937,-117.241751,32.672937,-117.241751,,Cabrillo NM
LA,32.637298,-91.4034220,32.637298,-91.4034220,20171130,Poverty Point NM
AL,32.457659,-85.6801900,32.764957,-84.6845160,20160130,Tuskegee Airmen NHS
SC,32.433213,-80.6710720,32.433213,-80.6710720,20190527,Reconstruction Era NHP
AL,32.430205,-85.7067470,32.268325,-87.2399630,20160129,Tuskegee Institute NHS
MS,32.355548,-90.8452180,32.355548,-90.8452180,20171130,Vicksburg NMP
MS,32.341126,-90.2126870,32.341126,-90.2126870,20171130,Medgar and Myrlie Evers Home NM
AZ,32.204677,-110.618925,32.204677,-110.618925,,Saguaro NP
GA,32.201468,-84.1303060,32.201468,-84.1303060,20160131,Andersonville NHS
NM,32.176221,-104.553314,32.176221,-104.553314,20171221,Carlsbad Caverns NP
AZ,32.145159,-109.436028,32.145159,-109.436028,,Fort Bowie NHS
GA,32.037286,-84.3925120,32.037286,-84.3925120,20160131,Jimmy Carter NHP
NM,32.028373,-112.832130,32.028373,-112.832130,,Organ Pipe Cactus NM
GA,32.027864,-80.8906370,32.027864,-80.8906370,20190527,Fort Pulaski NM
AZ,32.012907,-109.341677,32.012907,-109.341677,,Chiricahua NM
TX,31.958912,-104.869592,31.958912,-104.869592,20171221,Guadalupe Mountains NP
TX,31.767643,-106.454482,31.767643,-106.454482,,Chamizal NMem
LA,31.665714,-93.0049360,31.665714,-93.0049360,20171205,Cane River Creole NHP
TX,31.608016,-97.1760440,31.608016,-97.1760440,20171207,Waco Mammoth NM
AZ,31.568286,-111.050974,31.568286,-111.050974,,Tumacacori NHP
MS,31.555118,-91.4123440,31.555118,-91.4123440,20171205,Natchez NHP
AZ,31.348305,-110.253806,31.348305,-110.253806,,Coronado NMem
GA,31.225108,-81.3920620,31.225108,-81.3920620,20190525,Fort Frederica NM
GA,30.848338,-81.4545020,30.848338,-81.4545020,20190525,Cumberland Island NS
TX,30.599198,-103.895281,30.599198,-103.895281,20171220,Fort Davis NHS
TX,30.458626,-94.3872900,30.458626,-94.3872900,20171206,Big Thicket NPres
FL,30.454935,-81.4496700,30.636011,-81.3371290,20190526,Timucuan EHPreserve
FL,30.385239,-81.4980580,30.220625,-79.7649230,20190526,Fort Caroline NMem
MS,30.357086,-87.0357010,30.357086,-87.0357010,20171201,Gulf Islands NS
TX,30.306813,-104.022238,30.306813,-104.022238,20171220,Blackwell School NHS
TX,30.243552,-98.6086680,30.243552,-98.6086680,20171207,Lyndon B Johnson NHP
LA,29.960042,-90.0608840,29.960042,-90.0608840,20171202,New Orleans Jazz NHP
FL,29.901022,-81.3122670,29.901022,-81.3122670,20190526,Castillo de San Marcos NM
LA,29.810871,-90.1339430,29.810871,-90.1339430,20171202,Jean Lafitte NHP&Pres
FL,29.716303,-81.2386290,29.716303,-81.2386290,20190526,Fort Matanzas NM
TX,29.613944,-102.737367,29.613944,-102.737367,20171217,Rio Grande WSR
TX,29.467265,-100.988395,29.467265,-100.988395,20171217,Amistad NRA
TX,29.329822,-98.4534790,29.329822,-98.4534790,20171216,San Antonio Missions NHP
TX,29.251538,-103.250018,29.251538,-103.250018,20171217,Big Bend NP
FL,28.796835,-80.7600640,28.796835,-80.7600640,20191222,Canaveral NS
FL,27.524605,-82.6434040,27.524605,-82.6434040,20191226,De Soto NMem
TX,27.086276,-97.3841150,27.086276,-97.3841150,20171208,Padre Island NS
FL,26.049707,-81.0757860,26.049707,-81.0757860,20191222,Big Cypress NPres
TX,26.018016,-97.4789810,26.018016,-97.4789810,20171210,Palo Alto Battlefield NHP
FL,25.610692,-80.1968780,25.610692,-80.1968780,20191222,Biscayne NP
FL,25.476772,-80.8859560,25.476772,-80.8859560,20191222,Everglades NP
FL,24.633968,-82.8734910,24.633968,-82.8734910,20191225,Dry Tortugas NP
HI,21.390279,-158.058110,25.363474,-114.116220,,Honouliuli NHS
HI,21.367947,-157.938889,25.325510,-113.877778,,Pearl Harbor NMem
HI,21.193378,-156.966636,25.028743,-111.933272,,Kalaupapa NHP
HI,20.728289,-156.156436,24.238091,-110.312872,,Haleakala NP
HI,20.026065,-155.821880,23.044310,-109.643760,,Pu'ukohola Heiau NHS
HI,19.678259,-156.021637,22.453040,-110.043274,,Kaloko-Honokohau NHP
HI,19.556021,-155.474312,22.245236,-108.948624,,Hawaii Volcanoes NP
HI,19.409351,-155.902554,21.995897,-109.805108,,Pu'uhonua O Honaunau NHP
PR,18.475050,-66.1233380,23.187625,-65.3083450,,San Juan NHS
VI,18.367428,-64.7512660,26.204568,-71.5075960,,Virgin Islands NP
VI,18.300555,-64.6971330,25.803330,-71.1827980,,Virgin Islands Coral Reef NM
VI,17.786628,-64.6218850,22.719768,-70.7313100,,Buck Island Reef NM
VI,17.775881,-64.7560670,22.655286,-71.5364020,,Salt River Bay NHP&EP
VI,17.747433,-64.7023290,22.484598,-71.2139740,,Christiansted NHS
MP,15.216136,145.7195270,42.824204,-136.420710,,American Memorial Park
GU,13.426206,144.6953330,37.131030,-136.523335,,War in the Pacific NHP
AS,-14.25182,-170.686720,36.740900,-131.433600,,National Park of American Samoa NP
