submap,latitude,longitude,date,name,geometry
AK,68.136164,-159.90742667374997,,Noatak NPres,POINT (-131.9629706695 31.651229880000002)
AK,67.776828,-153.3464765936084,,Gates of the Arctic NP&NPres,POINT (-129.33859063744336 31.41047476)
AK,67.507877,-159.2262922854816,,Kobuk Valley NP,POINT (-131.69051691419264 31.23027759)
AK,67.418385,-163.50522929245065,,Cape Krusenstern NM,POINT (-133.40209171698027 31.170317950000005)
AK,65.926059,-164.4379373085557,,Bering Land Bridge NPres,POINT (-133.7751749234223 30.170459530000002)
AK,64.971812,-143.29073746461393,,Yukon-Charley Rivers NPres,POINT (-125.31629498584557 29.531114040000006)
AK,63.375583,-150.79830005732927,,Denali NP,POINT (-128.31932002293172 28.461640610000003)
AK,61.282822,-142.89384237349654,,Wrangell-St Elias NP&NPres,POINT (-125.15753694939862 27.059490740000008)
AK,60.634254,-153.30417522882277,,Lake Clark NP&NPres,POINT (-129.3216700915291 26.62495018)
AK,59.929391,-150.1625651423825,,Kenai Fjords NP,POINT (-128.065026056953 26.15269197)
AK,59.014565,-156.1182597702813,,Alagnak WR,POINT (-130.44730390811253 25.539758550000002)
AK,58.786102,-136.96688312340547,,Glacier Bay NP&NPres,POINT (-122.78675324936219 25.386688340000006)
AK,58.605381,-154.95996264582317,,Katmai NP NPres,POINT (-129.98398505832927 25.265605270000002)
AK,57.048453,-135.31593885480393,,Sitka NHP,POINT (-122.12637554192158 24.222463510000004)
AK,56.87131,-157.81457868950744,,Aniakchak NM,POINT (-131.12583147580298 24.103777700000002)
WA,48.785985,-121.0655084524056,2021-07-11,Ross Lake NRA,POINT (-121.0655084524056 48.785985)
WA,48.772889,-121.2982356957661,2021-07-11,North Cascades NP,POINT (-121.2982356957661 48.772889)
MT,48.76767,-113.79035554101056,,Glacier NP,POINT (-113.79035554101056 48.76767)
WA,48.591907,-120.40481643171697,2021-07-11,Pacific Crest NST,POINT (-120.40481643171697 48.591907)
WA,48.587001,-123.1508277173961,,San Juan Island NHP,POINT (-123.1508277173961 48.587001)
MI,48.497282,-92.84936472456583,,Voyageurs NP,POINT (-92.84936472456583 48.497282)
WA,48.357325,-120.68541344959507,2021-07-11,Lake Chelan NRA,POINT (-120.68541344959507 48.357325)
WA,48.252041889090656,-122.70740633078576,,Ebey's Landing NHR,POINT (-122.70740633078576 48.252041889090656)
WA,48.13990339563261,-118.2467678028598,2021-07-12,Lake Roosevelt NRA,POINT (-118.2467678028598 48.13990339563261)
MI,48.01998232693837,-88.92532268983267,,Isle Royale NP,POINT (-88.92532268983267 48.01998232693837)
MT,47.9997424311338,-104.04079262539726,,Fort Union Trading Post NHS,POINT (-104.04079262539726 47.9997424311338)
MN,47.962664732287415,-89.68488297854043,,Grand Portage NM,POINT (-89.68488297854043 47.962664732287415)
WA,47.9053581885139,-123.62750862508366,2021-07-22,Olympic NP,POINT (-123.62750862508366 47.9053581885139)
WA,47.60009333380397,-122.33202598285006,2021-07-25,Klondike Gold Rush NHP,POINT (-122.33202598285006 47.60009333380397)
ND,47.331976980987655,-101.38582127874557,,Knife River Indian Villages NHS,POINT (-101.38582127874557 47.331976980987655)
MI,47.2425634651683,-88.44820924424963,,Keweenaw NHP,POINT (-88.44820924424963 47.2425634651683)
ND,47.00318541794516,-103.54218625534534,,Theodore Roosevelt NP,POINT (-103.54218625534534 47.00318541794516)
WA,46.93986442863277,-121.69411663177956,2021-07-18,Mount Rainier NP,POINT (-121.69411663177956 46.93986442863277)
WI,46.934026798394434,-90.6336231821812,,Apostle Islands NL,POINT (-90.6336231821812 46.934026798394434)
MI,46.56890589447937,-86.3186316831853,,Pictured Rocks NL,POINT (-86.3186316831853 46.56890589447937)
ID,46.448003369241896,-116.8224485226628,2021-07-13,Nez Perce NHP,POINT (-116.8224485226628 46.448003369241896)
MT,46.406469591198835,-112.73667594382268,,Grant-Kohrs Ranch NHS,POINT (-112.73667594382268 46.406469591198835)
OR,46.13512571830944,-123.88036470703705,2021-07-17,Lewis and Clark NHP,POINT (-123.88036470703705 46.13512571830944)
WA,46.041900680279134,-118.46409764107824,2021-07-14,Whitman Mission NHS,POINT (-118.46409764107824 46.041900680279134)
WI,46.0283998254678,-92.01263619919912,,Saint Croix NSR,POINT (-92.01263619919912 46.0283998254678)
ME,45.957323311485936,-68.71228711465142,2016-09-23,Katahdin Woods and Waters NM,POINT (-68.71228711465142 45.957323311485936)
MT,45.64207525059023,-113.64334300273688,,Big Hole NB,POINT (-113.64334300273688 45.64207525059023)
WA,45.62740301316505,-122.65635633672818,2021-07-17,Fort Vancouver NHS,POINT (-122.65635633672818 45.62740301316505)
MT,45.57104344062376,-107.42729947968674,2018-11-19,Little Bighorn Battlefield NM,POINT (-107.42729947968674 45.57104344062376)
MI,45.14585925852495,-86.01338971755784,,Sleeping Bear Dunes NL,POINT (-86.01338971755784 45.14585925852495)
ME,45.128938153009294,-67.13366902423219,,Saint Croix Island IHS,POINT (-67.13366902423219 45.128938153009294)
WY,45.054003617601666,-108.2468116180786,,Bighorn Canyon NRA,POINT (-108.2468116180786 45.054003617601666)
MN,44.93248981316008,-93.11273756703379,,Mississippi NRRA,POINT (-93.11273756703379 44.93248981316008)
OR,44.81522589060173,-117.72851362621648,2021-07-16,Oregon NHT,POINT (-117.72851362621648 44.81522589060173)
WY,44.689393770980246,-110.580043488868,2015-05-22,Yellowstone NP,POINT (-110.580043488868 44.689393770980246)
OR,44.63507917821037,-120.23907420195054,2021-07-15,John Day Fossil Beds NM,POINT (-120.23907420195054 44.63507917821037)
SD,44.591629028741856,-104.7147063824598,2018-11-20,Devils Tower NM,POINT (-104.7147063824598 44.591629028741856)
ME,44.37087724,-68.26382357,2016-09-24,Acadia NP,POINT (-68.26382357 44.37087724)
WI,44.27889547129056,-89.23800226102513,,Ice Age NST,POINT (-89.23800226102513 44.27889547129056)
WY,44.08341550808631,-110.6819280712523,2015-05-24,John D RockeFeller Jr Memorial PKWY,POINT (-110.6819280712523 44.08341550808631)
MN,44.01364346667158,-96.32518984559222,2018-10-09,Pipestone NM,POINT (-96.32518984559222 44.01364346667158)
SD,43.9633978652416,-102.35460391660422,2018-11-20,Badlands NP,POINT (-102.35460391660422 43.9633978652416)
WY,43.88659728339675,-110.7336343759602,2015-05-24,Grand Teton NP,POINT (-110.7336343759602 43.88659728339675)
SD,43.880833332552754,-103.45376111587704,2018-11-22,Mount Rushmore NMem,POINT (-103.45376111587704 43.880833332552754)
SD,43.845107913434965,-101.9008554641582,2018-11-21,Minuteman Missle NHS,POINT (-101.9008554641582 43.845107913434965)
SD,43.73143282159258,-103.8298744839508,2018-11-23,Jewel Cave NM,POINT (-103.8298744839508 43.73143282159258)
VT,43.631884064617694,-72.51786263425744,2016-09-22,Marsh-Billings-RockeFeller NHP,POINT (-72.51786263425744 43.631884064617694)
SD,43.59423782070069,-103.44191816180312,2018-11-23,Wind Cave NP,POINT (-103.44191816180312 43.59423782070069)
NH,43.50072629535456,-72.36877778476047,2016-09-22,Saint-Gaudens NHS,POINT (-72.36877778476047 43.50072629535456)
NY,43.41938510225973,-73.71071675286218,2016-09-21,Champlain Valley NHA,POINT (-73.71071675286218 43.41938510225973)
NY,43.28823364780196,-75.4153150918137,2016-09-20,North Country NST,POINT (-75.4153150918137 43.28823364780196)
NY,43.21126520783368,-75.45548804019012,2016-09-20,Fort Stanwix NM,POINT (-75.45548804019012 43.21126520783368)
ID,43.17218731231748,-113.48208066696924,,Craters of the Moon NM&NPres,POINT (-113.48208066696924 43.17218731231748)
OH,43.08905487821399,-91.18558409180582,2018-10-08,Effigy Mounds NM,POINT (-91.18558409180582 43.08905487821399)
NY,43.01212847114369,-73.64880900276864,2016-09-21,Saratoga NHP,POINT (-73.64880900276864 43.01212847114369)
ID,42.97334262859125,-122.12633200529336,2019-07-02,Crater Lake NP,POINT (-122.12633200529336 42.97334262859125)
NY,42.92374113694391,-76.57603641240969,2016-09-19,Harriet Tubman NHP,POINT (-76.57603641240969 42.92374113694391)
NY,42.911264995301075,-76.80002459166454,2016-09-19,Womens Rights NHP,POINT (-76.80002459166454 42.911264995301075)
NY,42.9016643587231,-78.8725290368659,,Theodore Roosevelt Inaugural NHS,POINT (-78.8725290368659 42.9016643587231)
SD,42.86973768084819,-97.38494200942009,2018-10-09,Missouri NRR,POINT (-97.38494200942009 42.86973768084819)
NE,42.86890726765854,-100.5531533704933,2018-10-09,Niobrara NSR,POINT (-100.5531533704933 42.86890726765854)
ID,42.832149739675714,-114.89188908640446,,Hagerman Fossil Beds NM,POINT (-114.89188908640446 42.832149739675714)
NY,42.78460156469404,-73.68064105841837,2016-09-21,Erie Canalway NHC,POINT (-73.68064105841837 42.78460156469404)
ID,42.67925374268543,-114.24410466998224,,Minidoka NHS,POINT (-114.24410466998224 42.67925374268543)
MA,42.64479123660801,-71.31332584708167,2016-09-27,Lowell NHP,POINT (-71.31332584708167 42.64479123660801)
MA,42.52451256331842,-70.89424641668587,2016-09-26,Essex NHA,POINT (-70.89424641668587 42.52451256331842)
MA,42.52199042721769,-70.88697673901278,2016-09-29,Salem Maritime NHS,POINT (-70.88697673901278 42.52199042721769)
MA,42.468433320098704,-71.0083438605546,2016-09-26,Saugus Iron Works NHS,POINT (-71.0083438605546 42.468433320098704)
MA,42.454789792803126,-71.30123108674881,2016-09-27,Minute Man NHP,POINT (-71.30123108674881 42.454789792803126)
NE,42.4254659,-103.734226,2018-10-10,Agate Fossil Beds NM,POINT (-103.734226 42.4254659)
MA,42.3774953898866,-71.12632055662039,2015-06-11,Longfellow House NHS,POINT (-71.12632055662039 42.3774953898866)
MA,42.37340611627443,-71.05651151217522,2015-06-10,Boston NHP,POINT (-71.05651151217522 42.37340611627443)
NY,42.370142722085674,-73.70416130944446,2016-09-20,Martin Van Buren NHS,POINT (-73.70416130944446 42.370142722085674)
NY,42.36094758087968,-71.06507208918194,2015-06-08,Boston African American NHS,POINT (-71.06507208918194 42.36094758087968)
MA,42.34742696176482,-71.12330395369952,2015-06-10,John F Kennedy NHS,POINT (-71.12330395369952 42.34742696176482)
WY,42.33817781830123,-110.67403112130454,2015-05-25,California NHT,POINT (-110.67403112130454 42.33817781830123)
MA,42.325812121566464,-71.13223594553051,2015-06-10,Frederick Law Olmsted NHS,POINT (-71.13223594553051 42.325812121566464)
MA,42.31283086439302,-70.94930017483412,2015-06-13,Boston Harbor Islands NRA,POINT (-70.94930017483412 42.31283086439302)
MA,42.25654473,-71.01182318,2015-06-12,Adams NHP,POINT (-71.01182318 42.25654473)
WY,42.204269459447886,-104.55609236254432,2018-10-11,Fort Laramie NHS,POINT (-104.55609236254432 42.204269459447886)
MA,42.107681631969946,-72.58146839659979,2016-09-29,Springfield Armory NHS,POINT (-72.58146839659979 42.107681631969946)
OR,42.0988371981579,-123.40682911371032,2019-07-01,Oregon Caves NM,POINT (-123.40682911371032 42.0988371981579)
MA,42.095248975686815,-71.26956814381529,2015-10-10,Washington-Rochambeau Rev. Rt. NHT,POINT (-71.26956814381529 42.095248975686815)
ID,42.07306689679784,-113.70381986296807,,City of Rocks NPres,POINT (-113.70381986296807 42.07306689679784)
WY,42.06220628138199,-104.18410616352396,2018-10-11,Pony Express NHT,POINT (-104.18410616352396 42.06220628138199)
MI,41.916019951937415,-83.37988243092043,,River Raisin NBP,POINT (-83.37988243092043 41.916019951937415)
CA,41.88762026213523,-121.3771649610455,2019-07-03,Tule Lake NM,POINT (-121.3771649610455 41.88762026213523)
RI,41.87886558615023,-71.38317257880699,2016-09-28,Blackstone River Valley NHP,POINT (-71.38317257880699 41.87886558615023)
WY,41.85703888353293,-110.76242051518524,2015-05-25,Fossil Butte NM,POINT (-110.76242051518524 41.85703888353293)
NE,41.83463324578654,-103.70701227100844,2018-10-11,Scotts Bluff NM,POINT (-103.70701227100844 41.83463324578654)
RI,41.831666554625656,-71.41093694895771,2016-09-28,Roger Williams NMem,POINT (-71.41093694895771 41.831666554625656)
NY,41.79759030759542,-73.94199583979432,2016-09-19,Vanderbilt Mansion NHS,POINT (-73.94199583979432 41.79759030759542)
CA,41.77550293460772,-121.50677203928362,2019-07-03,Lava Beds NM,POINT (-121.50677203928362 41.77550293460772)
NY,41.7683600643813,-73.93530247687958,2016-09-19,Home of Franklin D. Roosevelt NHS,POINT (-73.93530247687958 41.7683600643813)
NY,41.7629317292442,-73.8995462813507,2016-09-19,Eleanor Roosevelt NHS,POINT (-73.8995462813507 41.7629317292442)
MA,41.72727705275205,-69.93024768439696,2016-09-26,Cape Cod NS,POINT (-69.93024768439696 41.72727705275205)
IL,41.694052159675294,-87.60764955412142,,Pullman NHP,POINT (-87.60764955412142 41.694052159675294)
IA,41.67013130693787,-91.34633347673726,2018-10-08,Herbert Hoover NHS,POINT (-91.34633347673726 41.67013130693787)
OH,41.665392913253584,-81.35088547785094,2017-04-14,James A Garfield NHS,POINT (-81.35088547785094 41.665392913253584)
IN,41.65828365320674,-87.05173213545861,,Indiana Dunes NP,POINT (-87.05173213545861 41.65828365320674)
MI,41.654503001513845,-82.81132598874824,,Perry's Victory and International Peace Mem,POINT (-82.81132598874824 41.654503001513845)
MA,41.635951823351675,-70.92393064531525,2016-09-28,New Bedford Whaling NHP,POINT (-70.92393064531525 41.635951823351675)
PA,41.62699532904799,-75.05004311281111,2016-09-18,Upper Delaware SRR,POINT (-75.05004311281111 41.62699532904799)
UT,41.61735179234952,-112.55072115746806,,Golden Spike NHP,POINT (-112.55072115746806 41.61735179234952)
CA,41.53380287131973,-124.04382291529014,2019-06-30,Redwood NP,POINT (-124.04382291529014 41.53380287131973)
OH,41.474713697182445,-81.49165244947446,2017-04-14,David Berger NM,POINT (-81.49165244947446 41.474713697182445)
PA,41.408209843989745,-75.67200773386851,2016-09-18,Steamtown NHS,POINT (-75.67200773386851 41.408209843989745)
OH,41.32202958859705,-81.57284940074878,2016-06-12,Cuyahoga Valley NP,POINT (-81.57284940074878 41.32202958859705)
MA,41.27237433486885,-72.67002499820923,2016-09-29,New England NST,POINT (-72.67002499820923 41.27237433486885)
NE,41.26547805473562,-95.924576048863,2018-10-09,Lewis and Clark NHT,POINT (-95.924576048863 41.26547805473562)
CT,41.25777423800236,-73.45599708943594,,Weir Farm NHP,POINT (-73.45599708943594 41.25777423800236)
PA,41.13022106048631,-74.94270172710654,2016-09-18,Middle Delaware NSR,POINT (-74.94270172710654 41.13022106048631)
NJ,41.10479449362536,-74.94438962524589,2016-09-18,Delaware Water Gap NRA,POINT (-74.94438962524589 41.10479449362536)
NY,41.088507274386565,-73.96824805843465,2016-09-20,Hudson River Valley NHA,POINT (-73.96824805843465 41.088507274386565)
NJ,40.91569956652449,-74.17965208181592,2016-09-17,Paterson Great Falls NHP,POINT (-74.17965208181592 40.91569956652449)
NY,40.894387463382394,-73.82627094885707,2018-07-20,Saint Paul's Church NHS,POINT (-73.82627094885707 40.894387463382394)
NY,40.8858320639474,-73.50095453451405,,Sagamore Hill NHS,POINT (-73.50095453451405 40.8858320639474)
NY,40.82210136055205,-73.94725581167171,2018-07-20,Hamilton Grange NMem,POINT (-73.94725581167171 40.82210136055205)
NY,40.813862568972006,-73.96329735465562,2018-07-21,General Grant NMem,POINT (-73.96329735465562 40.813862568972006)
OH,40.798255102589785,-81.37518424705577,2017-04-14,First Ladies NHS,POINT (-81.37518424705577 40.798255102589785)
NJ,40.797110680527766,-74.46596258217562,2016-09-17,Morristown NHP,POINT (-74.46596258217562 40.797110680527766)
NJ,40.784456496080495,-74.23437371853547,2016-09-17,Thomas Edison NHP,POINT (-74.23437371853547 40.784456496080495)
NY,40.73902066372994,-73.98906550893453,2018-07-22,Theodore Roosevelt Birthplace NHS,POINT (-73.98906550893453 40.73902066372994)
NY,40.734871141369666,-74.00218348082538,2018-07-22,Stonewall NM,POINT (-74.00218348082538 40.734871141369666)
NY,40.715133340518655,-74.0045030424539,2018-07-22,African Burial Ground NM,POINT (-74.0045030424539 40.715133340518655)
NY,40.70758098253528,-74.01020405772513,2018-07-22,Federal Hall NMem,POINT (-74.01020405772513 40.70758098253528)
NY,40.70415413355017,-74.01667429257023,2018-07-22,Castle Clinton NM,POINT (-74.01667429257023 40.70415413355017)
NY,40.69040625115305,-74.01745349130702,2018-07-22,Governors Island NM,POINT (-74.01745349130702 40.69040625115305)
NY,40.689716984895945,-74.04462269160413,2018-07-22,Statue of Liberty NM,POINT (-74.04462269160413 40.689716984895945)
NY,40.644409862709914,-73.16400142353062,,Fire Island NS,POINT (-73.16400142353062 40.644409862709914)
WA,40.61378394081933,-122.60099281457956,2019-07-05,Whiskeytown-Shasta-Trinity NRA,POINT (-122.60099281457956 40.61378394081933)
CA,40.565134616946814,-121.42075982927662,2019-07-04,Lassen Volcanic NP,POINT (-121.42075982927662 40.565134616946814)
CO,40.51326467662732,-108.9487895812977,,Dinosaur NM,POINT (-108.9487895812977 40.51326467662732)
PA,40.460045088781776,-78.54960807687625,2016-06-19,Allegheny Portage Railroad NHS,POINT (-78.54960807687625 40.460045088781776)
UT,40.44454739852495,-111.70532914676738,2015-05-26,Timpanagos Cave NM,POINT (-111.70532914676738 40.44454739852495)
NY,40.440206337294754,-73.98849020082417,2018-07-22,Gateway NRA,POINT (-73.98849020082417 40.440206337294754)
CO,40.40869375521765,-105.6908692694385,2018-10-11,Rocky Mountain NP,POINT (-105.6908692694385 40.40869375521765)
PA,40.350457049849105,-78.77160555268227,2016-06-19,Johnstown Flood NMem,POINT (-78.77160555268227 40.350457049849105)
NE,40.28697334051471,-96.8327362335534,,Homestead NHP,POINT (-96.8327362335534 40.28697334051471)
NJ,40.22170812638051,-74.76932143722557,2016-09-17,Crossroads of the American Revolution NHA,POINT (-74.76932143722557 40.22170812638051)
PA,40.10038812373427,-75.4460658106148,2016-03-26,Valley Forge NHP,POINT (-75.4460658106148 40.10038812373427)
PA,40.059492775684895,-78.89486017528708,2016-06-19,Flight 93 NMem,POINT (-78.89486017528708 40.059492775684895)
PA,39.96205634043528,-75.14992085866068,2016-07-16,Edgar Allen Poe NHS,POINT (-75.14992085866068 39.96205634043528)
PA,39.95925148573473,-75.17247663643674,2016-07-16,Benjamin Franklin NMem,POINT (-75.17247663643674 39.95925148573473)
PA,39.950416038774925,-75.14981972286768,2016-07-16,Independence NHP,POINT (-75.14981972286768 39.950416038774925)
PA,39.9500689,-75.1497751,2016-03-26,Hopewell Fernace NHS,POINT (-75.1497751 39.9500689)
PA,39.94391776366156,-75.14745768087886,2016-07-16,Thaddeus Kosciuszko NMem,POINT (-75.14745768087886 39.94391776366156)
PA,39.816216136405,-79.58945534532249,2016-06-18,Fort Necessity NB,POINT (-79.58945534532249 39.816216136405)
PA,39.806177694138775,-77.24215874429234,2016-05-29,Gettysburg NMP,POINT (-77.24215874429234 39.806177694138775)
IL,39.80469445737653,-89.64178648952462,,Springfield 1908 Race Riot NM,POINT (-89.64178648952462 39.80469445737653)
IL,39.797366026232254,-89.64489943323709,,Lincoln Home NHS,POINT (-89.64489943323709 39.797366026232254)
PA,39.795577098908566,-77.26352347854933,2016-05-29,Eisenhower NHS,POINT (-77.26352347854933 39.795577098908566)
PA,39.77648212845025,-79.93159278384081,2016-06-18,Friendship Hill NHS,POINT (-79.93159278384081 39.77648212845025)
OH,39.75598001322475,-84.2117561428621,2018-10-05,Dayton Aviation Heritage NHP,POINT (-84.2117561428621 39.75598001322475)
OH,39.70825466825573,-83.89063834032443,2018-10-06,Charles Young Buffalo Soldiers NM,POINT (-83.89063834032443 39.70825466825573)
IL,39.698108378015185,-90.96171894114877,,New Philadelphia NHS,POINT (-90.96171894114877 39.698108378015185)
DE,39.660401672174494,-75.56358067307171,2016-07-17,First State NHP,POINT (-75.56358067307171 39.660401672174494)
MD,39.64059008388623,-77.4413362189572,2016-05-28,Catoctin Mountain Park,POINT (-77.4413362189572 39.64059008388623)
MD,39.50092950506559,-77.84491835375542,2016-05-30,Chesapeake and Ohio Canal NHP,POINT (-77.84491835375542 39.50092950506559)
MD,39.467669379037275,-77.736385728196,2016-05-30,Antietam NB,POINT (-77.736385728196 39.467669379037275)
MD,39.41697560479516,-76.58767335148984,2016-03-27,Hampton NHS,POINT (-76.58767335148984 39.41697560479516)
KS,39.3934436685301,-99.61468389710816,,Nicodemus NHS,POINT (-99.61468389710816 39.3934436685301)
MD,39.37812709886845,-77.39706560181676,2016-05-28,Monocacy NB,POINT (-77.39706560181676 39.37812709886845)
OH,39.376187652424065,-83.00648435929486,2018-10-05,Hopewell Culture NHP,POINT (-83.00648435929486 39.376187652424065)
WV,39.31817805934144,-77.75811552151214,2016-05-30,Harpers Ferry NHP,POINT (-77.75811552151214 39.31817805934144)
NJ,39.307595839348,-74.65032631400062,2016-07-17,Great Egg Harbor SRR,POINT (-74.65032631400062 39.307595839348)
MD,39.266286062087914,-76.57853102243804,2015-10-10,Star Spangled Banner NST,POINT (-76.57853102243804 39.266286062087914)
MD,39.26457875530224,-76.58059831080388,2016-03-27,Fort McHenry NM,POINT (-76.58059831080388 39.26457875530224)
OH,39.11978221613583,-84.50830191830231,2018-10-06,William Howard Taft NHS,POINT (-84.50830191830231 39.11978221613583)
MO,39.09393626572962,-94.42354109483168,,Harry S Truman NHS,POINT (-94.42354109483168 39.09393626572962)
VA,39.05222156397165,-77.33419802168181,2015-10-10,Potomac Heritage NST,POINT (-77.33419802168181 39.05222156397165)
CO,39.05092961607754,-108.69219470896256,,Colorado NM,POINT (-108.69219470896256 39.05092961607754)
KS,39.03942159628702,-95.67632942616932,,Brown v Board of Education NHP,POINT (-95.67632942616932 39.03942159628702)
VA,39.02440273417588,-78.3052902906048,2016-05-30,Shenandoah Battlefields NHP,POINT (-78.3052902906048 39.02440273417588)
VA,39.01151567945355,-78.30409231361752,2016-05-30,Cedar Creek and Belle Grove NHP,POINT (-78.30409231361752 39.01151567945355)
DC,38.984067308693184,-76.89728799793228,2015-12-28,Greenbelt Park,POINT (-63.91863993796859 31.52201926079546)
DC,38.9678739294092,-77.04520712383106,2016-03-26,Rock Creek Park,POINT (-68.35621371493204 31.036217882276027)
MD,38.967632375221086,-77.1409490820061,2015-12-28,Clara Barton NHS,POINT (-77.1409490820061 38.967632375221086)
NV,38.94668392274632,-114.25657156761416,,Great Basin NP,POINT (-114.25657156761416 38.94668392274632)
VA,38.93917027120216,-77.26607108516673,2015-12-29,Wolf Trap Performing Arts Park,POINT (-77.26607108516673 38.93917027120216)
VA,38.91819588707799,-78.04962008604608,2016-05-30,Appalachian NST,POINT (-78.04962008604608 38.91819588707799)
CO,38.91431659580663,-105.28548855679485,2018-10-15,Florissant Fossil Beds NM,POINT (-105.28548855679485 38.91431659580663)
DC,38.91125417834611,-77.02423756614559,2015-12-26,Carter G Woodson NHS,POINT (-67.72712698436777 29.33762535038342)
DC,38.90856763949765,-77.03061904499701,2015-12-26,Mary McLeod Bethune Council House NHS,POINT (-67.91857134991015 29.257029184929394)
UT,38.90123647498111,-109.59951465362391,2015-05-26,Arches NP,POINT (-109.59951465362391 38.90123647498111)
DC,38.899210856728466,-77.0349814727403,2015-12-26,Pennsylvania Avenue NHS,POINT (-68.04944418220902 28.976325701854073)
DC,38.897954576743615,-77.03665460800121,2015-12-26,The White House - President's Park,POINT (-68.09963824003663 28.938637302308535)
DC,38.89719763807421,-77.02657323426008,2015-12-26,Peterson House NHS,POINT (-67.79719702780274 28.91592914222634)
DC,38.89687390768802,-77.03292131186517,2015-12-26,World War 1 Mem,POINT (-67.98763935595515 28.906217230640664)
DC,38.89675439332076,-77.06231710443734,2015-12-28,Theodore Roosevelt Island Park,POINT (-68.86951313312028 28.902631799622796)
DC,38.895059553044554,-77.02730277187794,2015-12-26,Old Post Offce Tower Mem,POINT (-67.8190831563382 28.851786591336555)
DC,38.89395001562354,-77.00390169606317,2016-07-16,Belmont-Paul Women's Equality NM,POINT (-67.11705088189501 28.81850046870624)
DC,38.89208094484619,-77.04451718355719,2015-12-26,Constitution Gardens Park,POINT (-68.33551550671561 28.762428345385878)
DC,38.89195576683313,-77.04774581624858,2015-12-26,Vietnam Veterans Mem,POINT (-68.43237448745728 28.758673004993746)
DC,38.89040165409813,-77.03512523762963,2015-12-26,National Mall Park,POINT (-68.05375712888888 28.712049622943937)
DC,38.89022987158848,-77.03533505408237,2015-12-26,Washington Monument Park,POINT (-68.06005162247098 28.706896147654398)
DC,38.8896413730621,-77.05010210292797,2015-12-26,Lincoln Mem,POINT (-68.50306308783895 28.68924119186284)
DC,38.88949764654867,-77.04054991775779,2015-12-26,World War II Mem,POINT (-68.21649753273373 28.684929396460028)
DC,38.888596528426525,-77.04771046821497,2015-12-26,Korean War Veterans Mem,POINT (-68.43131404644919 28.65789585279581)
DC,38.888100564808624,-77.0188737950604,2015-12-26,Dwight D Eisenhower Mem,POINT (-67.56621385181204 28.643016944258775)
DC,38.887150969818826,-77.04454599306426,2015-12-26,Martin Luther King Jr. Mem,POINT (-68.3363797919278 28.61452909456471)
DC,38.883992910218346,-77.04284097136262,2015-12-26,Franklin Delano Roosevelt Memorial,POINT (-68.28522914087846 28.519787306550477)
VA,38.882517088515776,-77.07278846059576,2015-12-28,Arlington House Mem,POINT (-77.07278846059576 38.882517088515776)
DC,38.881721948686064,-77.0365911904093,2015-12-26,Jefferson Mem,POINT (-68.09773571227896 28.45165846058184)
DC,38.88064052172131,-77.05136742180211,2015-12-28,LBJ Memorial Grove on the Potomac Park,POINT (-68.54102265406327 28.419215651639256)
DC,38.86827946871436,-76.99534993111291,2015-12-29,Anacostia Park,POINT (-66.86049793338742 28.04838406143095)
DC,38.866319856497505,-76.99391707599662,2015-12-26,National Capital Parks-East Park,POINT (-66.8175122798988 27.98959569492512)
DC,38.863635158833034,-76.98524052293541,2015-12-29,Frederick Douglass NHS,POINT (-66.5572156880622 27.909054764991055)
DC,38.84422322681608,-77.04923834964205,2015-12-28,George Washington Mem. PKWY,POINT (-68.47715048926142 27.326696804482346)
VA,38.81731461136668,-77.53530729551818,2015-10-10,Manassas NBP,POINT (-77.53530729551818 38.81731461136668)
DC,38.76879716,-77.02553698,2015-12-26,Ford's Theatre NHS,POINT (-67.7661093999998 25.063914799999942)
DC,38.767842718889845,-77.02496847503694,2015-10-10,Fort Foote Park,POINT (-67.74905425110815 25.035281566695424)
MD,38.7120110173,-77.02874790345528,2015-10-10,Fort Washington Park,POINT (-77.02874790345528 38.7120110173)
MD,38.68789938334353,-77.04993678838737,2015-10-10,Piscataway Park,POINT (-77.04993678838737 38.68789938334353)
IN,38.67897941591457,-87.53671640309021,2016-08-11,George Rogers Clark NHP,POINT (-87.53671640309021 38.67897941591457)
UT,38.625504043574765,-90.18608880999713,,Gateway Arch NP,POINT (-90.18608880999713 38.625504043574765)
CO,38.62146529286767,-107.7430049188367,,Black Canyon of the Gunnison NP,POINT (-107.7430049188367 38.62146529286767)
VA,38.58581645654556,-77.38427849677515,2015-10-09,Prince William Forest Park,POINT (-77.38427849677515 38.58581645654556)
MI,38.551456489713054,-90.35175170727464,,Ulysses S Grant NHS,POINT (-90.35175170727464 38.551456489713054)
CO,38.54475888885499,-102.50388618527974,,Sand Creek Massacre NHS,POINT (-102.50388618527974 38.54475888885499)
MD,38.530532025810444,-77.03627387774036,2015-10-11,Thomas Stone NHS,POINT (-77.03627387774036 38.530532025810444)
VA,38.497963498666046,-78.4506273856569,2016-05-30,Shenandoah NP,POINT (-78.4506273856569 38.497963498666046)
CO,38.46627876598758,-107.16673209445348,,Curecanti NRA,POINT (-107.16673209445348 38.46627876598758)
VA,38.45051450656644,-76.13770687676381,2016-03-25,Harriet Tubman Underground Railroad NHP,POINT (-76.13770687676381 38.45051450656644)
KS,38.43268785466905,-96.55707561920387,,Tallgrass Prairie NPres,POINT (-96.55707561920387 38.43268785466905)
UT,38.39710932742917,-109.9720074738202,2015-05-27,Canyonlands NP,POINT (-109.9720074738202 38.39710932742917)
VA,38.305326282619,-76.63601723271833,2015-10-11,Underground Railroad Network Park,POINT (-76.63601723271833 38.305326282619)
VA,38.293988346698434,-77.46742910725627,2015-10-09,Fredericksburg and Spotsylvania NMP,POINT (-77.46742910725627 38.293988346698434)
WV,38.22416027317687,-80.99140617671122,2015-09-06,Gauley River NRA,POINT (-80.99140617671122 38.22416027317687)
VA,38.18398079647575,-76.92023697032334,2015-10-10,George Washington Birthplace NM,POINT (-76.92023697032334 38.18398079647575)
KS,38.18308288393273,-99.22114560520824,,Fort Larned NHS,POINT (-99.22114560520824 38.18308288393273)
UT,38.13376410922067,-111.15776496672925,,Capitol Reef NP,POINT (-111.15776496672925 38.13376410922067)
IN,38.114270108171134,-86.99553875200334,2016-08-11,Lincoln Boyhood NMem,POINT (-86.99553875200334 38.114270108171134)
VA,38.077546119762125,-75.23576133389882,2016-03-25,Assateague Island NS,POINT (-75.23576133389882 38.077546119762125)
CA,38.058786541140016,-122.03021316622797,2019-07-06,Port Chicago Naval Magazine NM,POINT (-122.03021316622797 38.058786541140016)
CO,38.056584804714674,-102.32927880606826,,Amache NHS,POINT (-102.32927880606826 38.056584804714674)
CA,38.05449275957061,-122.88788051767848,2019-06-29,Point Reyes NS,POINT (-122.88788051767848 38.05449275957061)
CO,38.040933959991136,-103.42962284017536,,Bent's Old Fort NHS,POINT (-103.42962284017536 38.040933959991136)
CA,37.99269370601797,-122.13109641021796,2019-07-06,John Muir NHS,POINT (-122.13109641021796 37.99269370601797)
MI,37.97445286307878,-90.040880195565,,Ste Genevieve NHP,POINT (-90.040880195565 37.97445286307878)
WV,37.929867069231705,-81.05061775034413,2015-09-06,New River Gorge NP&Pres,POINT (-81.05061775034413 37.929867069231705)
CA,37.91014225745344,-122.35753981287738,2019-07-06,Rosie the Riveter NHP,POINT (-122.35753981287738 37.91014225745344)
CA,37.905860661101485,-119.5541019052134,,Yosemite NP,POINT (-119.5541019052134 37.905860661101485)
CA,37.89779185038824,-122.58146869163156,2015-05-18,Muir Woods NM,POINT (-122.58146869163156 37.89779185038824)
CO,37.862279497605634,-105.64652411676616,2018-10-16,Great Sand Dunes NP,POINT (-105.64652411676616 37.862279497605634)
CA,37.84745766255077,-122.5306164445791,2015-05-17,Golden Gate NRA,POINT (-122.5306164445791 37.84745766255077)
KS,37.84416586833918,-94.70439398735597,2017-11-26,Fort Scott NHS,POINT (-94.70439398735597 37.84416586833918)
CA,37.82711919868201,-122.02724911568154,2019-07-06,Eugene O'Neall NHS,POINT (-122.02724911568154 37.82711919868201)
CA,37.81122890245474,-122.47692668756206,2015-05-17,Fort Point NHS,POINT (-122.47692668756206 37.81122890245474)
CA,37.80802602187967,-122.42455708167348,2015-05-17,San Francisco Maritime NHP,POINT (-122.42455708167348 37.80802602187967)
KY,37.79752247563955,-84.60079625267547,2016-08-14,Camp Nelson NM,POINT (-84.60079625267547 37.79752247563955)
UT,37.78267989073463,-112.2243072660506,,Bryce Canyon NP,POINT (-112.2243072660506 37.78267989073463)
UT,37.63689266299551,-112.8452291051868,,Cedar Breaks NM,POINT (-112.8452291051868 37.63689266299551)
CA,37.61622764485837,-119.08765356158388,,Devils Postpile NM,POINT (-119.08765356158388 37.61622764485837)
UT,37.60326572500643,-110.00577117519128,,Natural Bridges NM,POINT (-110.00577117519128 37.60326572500643)
DC,37.548311004733286,-77.43732103629337,2015-12-29,Maggie L Walker NHS,POINT (-80.11963108880092 -11.55066985800132)
KY,37.53116708075535,-85.73749279514995,2016-08-11,Abraham Lincoln Birthplace NHP,POINT (-85.73749279514995 37.53116708075535)
VA,37.52734177245004,-77.41216278504551,2015-10-11,Richmond NBP,POINT (-77.41216278504551 37.52734177245004)
CO,37.471243902143314,-105.86558895146295,2018-10-16,Sangre de Cristo NHA,POINT (-105.86558895146295 37.471243902143314)
WV,37.4515631844162,-81.17338657323535,2015-09-06,Bluestone NSR,POINT (-81.17338657323535 37.4515631844162)
UT,37.384064675714555,-109.0726142765121,,Hovenweep NM,POINT (-109.0726142765121 37.384064675714555)
VA,37.38065164573938,-78.79833524421805,2015-08-08,Appomattox Court House NHP,POINT (-78.79833524421805 37.38065164573938)
UT,37.31643555428096,-113.03070742173874,,Zion NP,POINT (-113.03070742173874 37.31643555428096)
CO,37.25174562033068,-108.68580913172984,,Yucca House NM,POINT (-108.68580913172984 37.25174562033068)
VA,37.23099860014624,-76.50276750954013,2016-03-25,Colonial NHP,POINT (-76.50276750954013 37.23099860014624)
VA,37.22923164346111,-77.36629222427091,2015-10-11,Petersburg NB,POINT (-77.36629222427091 37.22923164346111)
KY,37.215877360005265,-86.11618919403338,2016-08-12,Mammoth Cave NP,POINT (-86.11618919403338 37.215877360005265)
VA,37.21256772288552,-76.77824888619585,2015-10-10,Captain John Smith Chesapeake NHT,POINT (-76.77824888619585 37.21256772288552)
CO,37.188141807176684,-108.48912674670676,,Mesa Verde NP,POINT (-108.48912674670676 37.188141807176684)
VA,37.120838178406046,-79.73187115273858,2015-08-08,Booker T Washington NM,POINT (-79.73187115273858 37.120838178406046)
MO,37.116460578708846,-93.41989684094851,2017-11-26,Wilson's Creek NB,POINT (-93.41989684094851 37.116460578708846)
UT,37.077663199086686,-110.96431073948575,,Rainbow Bridge NM,POINT (-110.96431073948575 37.077663199086686)
KY,37.06911848193139,-84.7359072587288,2016-08-14,Mill Springs Battlefield NM,POINT (-84.7359072587288 37.06911848193139)
CA,37.02078607831237,-117.17056931416845,,Death Valley NP,POINT (-117.17056931416845 37.02078607831237)
VA,37.00460661631604,-76.30726453741133,2016-03-25,Fort Monroe NM,POINT (-76.30726453741133 37.00460661631604)
AR,37.00086187807244,-91.0161332928979,2017-11-28,Ozark NSR,POINT (-91.0161332928979 37.00086187807244)
MO,36.986244563097856,-94.3547008893739,2017-11-26,George Washington Carver NM,POINT (-94.3547008893739 36.986244563097856)
UT,36.91997071660075,-111.4756957617485,,Glen Canyon NRA,POINT (-111.4756957617485 36.91997071660075)
CA,36.90569694354536,-118.55513341327976,,Kings Canyon NP,POINT (-118.55513341327976 36.90569694354536)
AZ,36.86336850972473,-112.73761125419036,,Pipe Spring NM,POINT (-112.73761125419036 36.86336850972473)
NM,36.836279297013725,-107.99953585471268,,Aztec Ruins NM,POINT (-107.99953585471268 36.836279297013725)
NM,36.802541963242966,-103.97549428620432,2018-10-16,Capulin Volcano NM,POINT (-103.97549428620432 36.802541963242966)
CA,36.72750810287364,-118.15283103919222,,Manzanar NHS,POINT (-118.15283103919222 36.72750810287364)
AZ,36.682093908463024,-110.53285950768348,,Navajo NM,POINT (-110.53285950768348 36.682093908463024)
KY,36.626614910865165,-83.60853013118215,2016-08-14,Cumberland Gap NHP,POINT (-83.60853013118215 36.626614910865165)
VA,36.569705436950635,-80.9078661772477,2015-08-02,Blue Ridge PKWY,POINT (-80.9078661772477 36.569705436950635)
TN,36.53594827877208,-84.66549172434746,2016-08-14,Big South Fork NRRA,POINT (-84.66549172434746 36.53594827877208)
CA,36.520013904619766,-118.5745746474029,,Sequoia NP,POINT (-118.5745746474029 36.520013904619766)
CA,36.518591641657125,-121.1892998584751,2015-05-15,Pinnacles NP,POINT (-121.1892998584751 36.518591641657125)
KY,36.48224353116664,-87.86347096398981,2016-08-10,Fort Donelson NB,POINT (-87.86347096398981 36.48224353116664)
AR,36.44385881148793,-94.02651815971468,2017-11-28,Pea Ridge NMP,POINT (-94.02651815971468 36.44385881148793)
AZ,36.39111870849107,-112.37343708324757,,Grand Canyon NP,POINT (-112.37343708324757 36.39111870849107)
NV,36.33634030506516,-115.2786277206856,,Tule Springs Fossil Beds NM,POINT (-115.2786277206856 36.33634030506516)
TN,36.16323500655847,-82.82948949948852,2016-08-06,Andrew Johnson NHS,POINT (-82.82948949948852 36.16323500655847)
NV,36.155341956641,-114.45586868146567,,Lake Mead NRA,POINT (-114.45586868146567 36.155341956641)
NC,36.133610846146176,-79.84162663628051,2015-06-06,Guilford Courthouse NMP,POINT (-79.84162663628051 36.133610846146176)
TN,36.122404326190924,-84.79019715571202,2016-08-09,Obed WSR,POINT (-84.79019715571202 36.122404326190924)
AZ,36.120141755106005,-109.3195505988222,,Canyon De Chelly NM,POINT (-109.3195505988222 36.120141755106005)
NM,36.0536404304614,-107.95587380525312,,Chaco Culture NHP,POINT (-107.95587380525312 36.0536404304614)
TN,36.02375975866061,-84.27136025462008,2016-08-09,Manhattan Project NHP,POINT (-84.27136025462008 36.02375975866061)
NC,36.019197998927325,-83.49297282087267,2016-10-08,Great Smoky Mountains NP,POINT (-83.49297282087267 36.019197998927325)
NC,36.01705597857926,-75.66813561778213,2015-10-24,Wright Brothers NM,POINT (-75.66813561778213 36.01705597857926)
AR,35.983222761297185,-92.7548347229774,2017-11-28,Buffalo NR,POINT (-92.7548347229774 35.983222761297185)
NC,35.93601269242656,-75.70873353513643,2015-10-24,Fort Raleigh NHS,POINT (-75.70873353513643 35.93601269242656)
NM,35.905864213775935,-105.01158073363452,2018-10-16,Fort Union NM,POINT (-105.01158073363452 35.905864213775935)
WA,35.881832804069134,-106.30273818972164,2018-10-17,Manhattan Project NHP,POINT (-106.30273818972164 35.881832804069134)
TN,35.87643577935824,-86.43068853626157,2016-08-10,Stones River NB,POINT (-86.43068853626157 35.87643577935824)
TN,35.874368325067714,-87.03210893168867,2017-11-24,Natchez Trace NST,POINT (-87.03210893168867 35.874368325067714)
NM,35.832763469807944,-106.4870279557957,2018-10-17,Valles Caldera NPres,POINT (-106.4870279557957 35.832763469807944)
NC,35.79712839076782,-75.54649250109124,2015-10-25,Cape Hatteras NS,POINT (-75.54649250109124 35.79712839076782)
NM,35.77932963,-106.2709601,2018-10-17,Bandelier NM,POINT (-106.2709601 35.77932963)
AZ,35.70964789371538,-109.55845198136298,,Hubbell Trading Post NHS,POINT (-109.55845198136298 35.70964789371538)
NM,35.66545873512,-105.92109469700692,2018-10-17,Santa Fe NHT,POINT (-105.92109469700692 35.66545873512)
TX,35.64469578447446,-101.58667666244273,2017-12-21,Lake Meredith NRA,POINT (-101.58667666244273 35.64469578447446)
OK,35.61741337364235,-99.68653227345727,2017-12-22,Washita Battlefield NM,POINT (-99.68653227345727 35.61741337364235)
TX,35.582621729309594,-101.67338698623377,2017-12-22,Alibates Flint Quarries NM,POINT (-101.67338698623377 35.582621729309594)
AZ,35.56042848172072,-111.39348709384416,,Wupatki NM,POINT (-111.39348709384416 35.56042848172072)
NM,35.54829816567577,-105.6844484540841,2018-10-18,Pecos NHP,POINT (-105.6844484540841 35.54829816567577)
OK,35.474196186458805,-97.5173002012818,2017-12-22,Oklahoma City NMem,POINT (-97.5173002012818 35.474196186458805)
AR,35.388314421692606,-94.42991962999923,2017-11-27,Fort Smith NHS,POINT (-94.42991962999923 35.388314421692606)
AZ,35.37161656568228,-111.51083444941888,,Sunset Crater Volcano NM,POINT (-111.51083444941888 35.37161656568228)
CA,35.3022484228907,-115.12676169366785,2016-05-11,Castle Mountains NM,POINT (-115.12676169366785 35.3022484228907)
NC,35.273994183420335,-82.44513734213795,2015-08-23,Carl Sandburg Home NHS,POINT (-82.44513734213795 35.273994183420335)
CA,35.224151503784924,-118.55829943529316,,Cesar E Chavez NM,POINT (-118.55829943529316 35.224151503784924)
AZ,35.16940616822444,-111.5044420167335,,Walnut Canyon NM,POINT (-111.5044420167335 35.16940616822444)
SC,35.14235749789572,-81.34473234331081,2015-07-18,Overmountain Victory NHT,POINT (-81.34473234331081 35.14235749789572)
TN,35.139581603648566,-88.34230939690545,2017-11-25,Shiloh NMP,POINT (-88.34230939690545 35.139581603648566)
SC,35.13908271736982,-81.39103892208101,2015-07-18,Kings Mountain NMP,POINT (-81.39103892208101 35.13908271736982)
SC,35.13788592322677,-81.81773929972637,2015-07-18,Cowpens NB,POINT (-81.81773929972637 35.13788592322677)
NM,35.12462130509288,-106.7525932837392,,Petroglyph NM,POINT (-106.7525932837392 35.12462130509288)
CA,35.123652153041824,-115.52045190907866,2016-05-11,Mojave NPres,POINT (-115.52045190907866 35.123652153041824)
NM,35.118986634423194,-107.82872250663256,,El Malpais NM,POINT (-107.82872250663256 35.118986634423194)
AZ,35.069264851450136,-109.78227152356266,,Petrified Forest NP,POINT (-109.78227152356266 35.069264851450136)
TN,35.05162390652403,-85.30935632768336,2015-10-03,Trail of Tears NHT,POINT (-85.30935632768336 35.05162390652403)
NM,35.0402178454769,-108.34396228822294,,El Morro NM,POINT (-108.34396228822294 35.0402178454769)
AL,34.979203449482824,-85.80988442362127,2015-10-03,Russell Cave NM,POINT (-85.80988442362127 34.979203449482824)
GA,34.93404256171934,-85.28013433441075,2015-10-03,Chickamauga and Chattanooga NMP,POINT (-85.28013433441075 34.93404256171934)
AZ,34.769234145664775,-112.02682396108088,,Tuzigoot NM,POINT (-112.02682396108088 34.769234145664775)
AR,34.73820634685888,-92.29748817211453,2017-11-29,Little Rock Central High School NHS,POINT (-92.29748817211453 34.73820634685888)
NC,34.64303868971449,-76.52659683778988,2015-06-01,Cape Lookout NS,POINT (-76.52659683778988 34.64303868971449)
AZ,34.611861882471445,-111.83487362556866,,Montezuma Castle NM,POINT (-111.83487362556866 34.611861882471445)
NM,34.59573191065774,-106.29793519621064,,Salinas Pueblo Missions NM,POINT (-106.29793519621064 34.59573191065774)
AR,34.5324235167162,-93.07239629017144,2017-11-29,Hot Springs NP,POINT (-93.07239629017144 34.5324235167162)
MS,34.5066804821213,-88.72893149352626,2017-11-24,Brices Gross Roads NBS,POINT (-88.72893149352626 34.5066804821213)
OK,34.461846496254104,-97.00702795511089,2017-12-23,Chickasaw NRA,POINT (-97.00702795511089 34.461846496254104)
NC,34.45868722443672,-78.11044020337408,2015-05-31,Moores Creek NB,POINT (-78.11044020337408 34.45868722443672)
AL,34.417061222852034,-85.60164551167304,2015-10-03,Little River Canyon NPres,POINT (-85.60164551167304 34.417061222852034)
CA,34.25876841189417,-119.79771947712774,2016-05-08,Channel Islands NP,POINT (-119.79771947712774 34.25876841189417)
MS,34.255973215842,-88.73702103097074,2017-11-24,Tupelo NB,POINT (-88.73702103097074 34.255973215842)
CA,34.205253945002156,-118.73561680339486,2016-05-09,Juan Bautista de Anza NHT,POINT (-118.73561680339486 34.205253945002156)
SC,34.14724334931511,-82.02301222329851,2015-08-23,Ninety Six NHS,POINT (-82.02301222329851 34.14724334931511)
CA,34.10466997537783,-118.60263908965008,2016-05-09,Santa Monica Mountains NRA,POINT (-118.60263908965008 34.10466997537783)
GA,34.01890018921234,-78.51538119654482,2015-05-31,Gullah Geechee NHA,POINT (-78.51538119654482 34.01890018921234)
AR,34.01556620523531,-91.34445929380512,2017-11-30,Arkansas Post NMem,POINT (-91.34445929380512 34.01556620523531)
GA,33.98809176877906,-84.32412598232797,2015-10-04,Chattahoochee River NRA,POINT (-84.32412598232797 33.98809176877906)
MS,33.971346811297835,-90.36974346216658,2017-11-30,Emmett Till and Mamie Till-Mobley NM,POINT (-90.36974346216658 33.971346811297835)
GA,33.95179155359891,-84.59650921490585,2015-10-04,Kennesaw Mountain NBP,POINT (-84.59650921490585 33.95179155359891)
CA,33.93048075383822,-115.91606998679704,2016-05-10,Joshua Tree NP,POINT (-115.91606998679704 33.93048075383822)
SC,33.80084711424209,-80.74829159317974,2016-09-12,Congaree NP,POINT (-80.74829159317974 33.80084711424209)
TN,33.76735835037296,-89.01880331235533,2017-11-24,Natchez Trace PKWY,POINT (-89.01880331235533 33.76735835037296)
GA,33.75714600882538,-84.37319605556712,2017-11-24,Martin Luther King Jr. NHP,POINT (-84.37319605556712 33.75714600882538)
AR,33.668742302880155,-93.59631669160082,2017-11-29,President Bill Clinton Birthplace Home NHS,POINT (-93.59631669160082 33.668742302880155)
AL,33.6584228571367,-85.83112868981453,2017-11-24,Freedom Riders NM,POINT (-85.83112868981453 33.6584228571367)
AZ,33.64883366530531,-111.11368996606912,,Tonto NM,POINT (-111.11368996606912 33.64883366530531)
NM,33.22795002584763,-108.27075024617696,,Gila Cliff Dwellings NM,POINT (-108.27075024617696 33.22795002584763)
AZ,33.189372785758074,-111.92248982868315,,Hohokam Pima NM,POINT (-111.92248982868315 33.189372785758074)
AZ,32.99909245464712,-111.53241774574644,,Casa Grande Ruins NM,POINT (-111.53241774574644 32.99909245464712)
AL,32.9767063477324,-85.73377386958398,2016-01-30,Horseshoe Bend NMP,POINT (-85.73377386958398 32.9767063477324)
SC,32.84645072770478,-79.8247283657227,2016-05-01,Charles Pinckney NHS,POINT (-79.8247283657227 32.84645072770478)
NV,32.83313815668474,-106.33868624096068,,White Sands NP,POINT (-106.33868624096068 32.83313815668474)
GA,32.818837610157026,-83.59076627922907,2016-01-31,Ocmulgee NHP,POINT (-83.59076627922907 32.818837610157026)
SC,32.759811483772246,-79.85787524496541,2016-05-01,Fort Sumter and Fort Moultrie NHP,POINT (-79.85787524496541 32.759811483772246)
CA,32.67293733950517,-117.24175140979192,,Cabrillo NM,POINT (-117.24175140979192 32.67293733950517)
LA,32.637297841185884,-91.40342207847907,2017-11-30,Poverty Point NM,POINT (-91.40342207847907 32.637297841185884)
AL,32.457659237635085,-85.68018980447107,2016-01-30,Tuskegee Airmen NHS,POINT (-85.68018980447107 32.457659237635085)
SC,32.433212756949544,-80.67107233125616,2019-05-27,Reconstruction Era NHP,POINT (-80.67107233125616 32.433212756949544)
AL,32.43020502951419,-85.7067467842917,2016-01-29,Tuskegee Institute NHS,POINT (-85.7067467842917 32.43020502951419)
MS,32.35554834483981,-90.84521808686047,2017-11-30,Vicksburg NMP,POINT (-90.84521808686047 32.35554834483981)
MS,32.341126018146845,-90.2126874944827,2017-11-30,Medgar and Myrlie Evers Home NM,POINT (-90.2126874944827 32.341126018146845)
AZ,32.20467663829397,-110.61892510750698,,Saguaro NP,POINT (-110.61892510750698 32.20467663829397)
GA,32.20146796789183,-84.13030582800279,2016-01-31,Andersonville NHS,POINT (-84.13030582800279 32.20146796789183)
NM,32.176220688907165,-104.55331389560854,2017-12-21,Carlsbad Caverns NP,POINT (-104.55331389560854 32.176220688907165)
AZ,32.1451586188662,-109.43602833411266,,Fort Bowie NHS,POINT (-109.43602833411266 32.1451586188662)
GA,32.03728597037987,-84.39251193737125,2016-01-31,Jimmy Carter NHP,POINT (-84.39251193737125 32.03728597037987)
NM,32.02837284136767,-112.8321304688935,,Organ Pipe Cactus NM,POINT (-112.8321304688935 32.02837284136767)
GA,32.027863660360694,-80.89063702285925,2019-05-27,Fort Pulaski NM,POINT (-80.89063702285925 32.027863660360694)
AZ,32.01290731717124,-109.34167667779104,,Chiricahua NM,POINT (-109.34167667779104 32.01290731717124)
TX,31.9589121390612,-104.86959153708794,2017-12-21,Guadalupe Mountains NP,POINT (-104.86959153708794 31.9589121390612)
TX,31.767643255403783,-106.45448235159544,,Chamizal NMem,POINT (-106.45448235159544 31.767643255403783)
LA,31.66571383865032,-93.00493606026221,2017-12-05,Cane River Creole NHP,POINT (-93.00493606026221 31.66571383865032)
TX,31.608016015491604,-97.17604404492596,2017-12-07,Waco Mammoth NM,POINT (-97.17604404492596 31.608016015491604)
AZ,31.56828583742228,-111.05097372145596,,Tumacacori NHP,POINT (-111.05097372145596 31.56828583742228)
MS,31.555117946093567,-91.41234386494534,2017-12-05,Natchez NHP,POINT (-91.41234386494534 31.555117946093567)
AZ,31.348304883610044,-110.25380577260728,,Coronado NMem,POINT (-110.25380577260728 31.348304883610044)
GA,31.225107772442644,-81.39206227361005,2019-05-25,Fort Frederica NM,POINT (-81.39206227361005 31.225107772442644)
GA,30.84833796185664,-81.4545023495757,2019-05-25,Cumberland Island NS,POINT (-81.4545023495757 30.84833796185664)
TX,30.59919755644444,-103.89528065426806,2017-12-20,Fort Davis NHS,POINT (-103.89528065426806 30.59919755644444)
TX,30.458625743118528,-94.38729007732147,2017-12-06,Big Thicket NPres,POINT (-94.38729007732147 30.458625743118528)
FL,30.454934739889342,-81.44967024142197,2019-05-26,Timucuan EHPreserve,POINT (-81.44967024142197 30.454934739889342)
FL,30.38523898117681,-81.49805788752775,2019-05-26,Fort Caroline NMem,POINT (-81.49805788752775 30.38523898117681)
MS,30.3570861223782,-87.0357011912012,2017-12-01,Gulf Islands NS,POINT (-87.0357011912012 30.3570861223782)
TX,30.30681265935992,-104.0222380302915,2017-12-20,Blackwell School NHS,POINT (-104.0222380302915 30.30681265935992)
TX,30.243551607192924,-98.60866843491597,2017-12-07,Lyndon B Johnson NHP,POINT (-98.60866843491597 30.243551607192924)
LA,29.960042268171502,-90.06088390668914,2017-12-02,New Orleans Jazz NHP,POINT (-90.06088390668914 29.960042268171502)
FL,29.90102236565814,-81.31226736592902,2019-05-26,Castillo de San Marcos NM,POINT (-81.31226736592902 29.90102236565814)
LA,29.81087137659588,-90.13394258486508,2017-12-02,Jean Lafitte NHP&Pres,POINT (-90.13394258486508 29.81087137659588)
FL,29.716302643676983,-81.23862860756006,2019-05-26,Fort Matanzas NM,POINT (-81.23862860756006 29.716302643676983)
TX,29.613944470361403,-102.73736666474916,2017-12-17,Rio Grande WSR,POINT (-102.73736666474916 29.613944470361403)
TX,29.46726464739574,-100.9883945504542,2017-12-17,Amistad NRA,POINT (-100.9883945504542 29.46726464739574)
TX,29.329821562472024,-98.45347913595715,2017-12-16,San Antonio Missions NHP,POINT (-98.45347913595715 29.329821562472024)
TX,29.25153819248617,-103.25001827837691,2017-12-17,Big Bend NP,POINT (-103.25001827837691 29.25153819248617)
FL,28.796834738258887,-80.76006416946832,2019-12-22,Canaveral NS,POINT (-80.76006416946832 28.796834738258887)
FL,27.52460509886887,-82.64340427475565,2019-12-26,De Soto NMem,POINT (-82.64340427475565 27.52460509886887)
TX,27.08627597574708,-97.38411526965062,2017-12-08,Padre Island NS,POINT (-97.38411526965062 27.08627597574708)
FL,26.049706854121258,-81.07578553564811,2019-12-22,Big Cypress NPres,POINT (-81.07578553564811 26.049706854121258)
TX,26.018016465001296,-97.47898065431656,2017-12-10,Palo Alto Battlefield NHP,POINT (-97.47898065431656 26.018016465001296)
FL,25.61069155388161,-80.19687771558291,2019-12-22,Biscayne NP,POINT (-80.19687771558291 25.61069155388161)
FL,25.47677157671784,-80.88595589209235,2019-12-22,Everglades NP,POINT (-80.88595589209235 25.47677157671784)
FL,24.633968405637216,-82.8734914487529,2019-12-25,Dry Tortugas NP,POINT (-82.8734914487529 24.633968405637216)
HI,21.390279031707244,-158.05810964850176,,Honouliuli NHS,POINT (-114.11621929700351 25.363474353902312)
HI,21.367947081906653,-157.9388892425156,,Pearl Harbor NMem,POINT (-113.87777848503117 25.32551003924131)
HI,21.193378009609937,-156.96663569830332,,Kalaupapa NHP,POINT (-111.93327139660664 25.028742616336892)
HI,20.728288535954057,-156.15643618107651,,Haleakala NP,POINT (-110.31287236215303 24.238090511121896)
HI,20.02606480514125,-155.82188023655408,,Pu'ukohola Heiau NHS,POINT (-109.64376047310816 23.044310168740125)
HI,19.678258975192513,-156.02163653630075,,Kaloko-Honokohau NHP,POINT (-110.0432730726015 22.453040257827272)
HI,19.556020900995943,-155.4743123921899,,Hawaii Volcanoes NP,POINT (-108.94862478437977 22.245235531693105)
HI,19.409351115574168,-155.90255421719624,,Pu'uhonua O Honaunau NHP,POINT (-109.80510843439248 21.995896896476083)
PR,18.4750503734245,-66.12333840402411,,San Juan NHS,POINT (-65.30834601006028 23.187625933561254)
VI,18.36742755467638,-64.75126556759922,,Virgin Islands NP,POINT (-71.5075934055953 26.204565328058276)
VI,18.300555028845825,-64.69713339288002,,Virgin Islands Coral Reef NM,POINT (-71.1828003572801 25.803330173074944)
VI,17.786628479419395,-64.62188475568158,,Buck Island Reef NM,POINT (-70.73130853408944 22.719770876516368)
VI,17.7758811938846,-64.75606700895979,,Salt River Bay NHP&EP,POINT (-71.53640205375875 22.655287163307605)
VI,17.7474331310613,-64.7023289181468,,Christiansted NHS,POINT (-71.21397350888083 22.484598786367798)
MP,15.216135803103242,145.71952746888888,,American Memorial Park,POINT (-136.4207087966667 42.82420370465486)
GU,13.426206246220213,144.69533281091287,,War in the Pacific NHP,POINT (-136.52333594543563 37.13103123110106)
AS,-14.25181901032019,-170.68671837448667,,National Park of American Samoa NP,POINT (-131.43359187243337 36.74090494839905)
